estate_name,long,lat,avg_price
普天居贤院,114.190475,30.525092,14606
江城国际,114.242964,30.523829,15861
新阳广场,114.206065,30.537155,12421
人信太子湾,114.189511,30.512893,15388
观澜外校城,114.196532,30.519035,16796
米兰小镇东区,114.203655,30.530993,15942
金色港湾双湖泊岸,114.197511,30.519152,15937
金色港湾一期,114.182578,30.520484,15508
金色港湾三期,114.185251,30.522597,16321
城南春晓,123.423996,41.692062,7747
富邦壹品天城,123.40494,41.679322,6790
华新名筑,123.464875,41.711459,8571
绿城全运村翡翠园B区,123.474716,41.686007,14654
其仕盛和祥,123.560898,41.781189,11849
绿色家园,123.52441953363,41.697651549108,3974
雍熙金园,123.514637,41.755955,7975
红星MOMA新程,123.450057,41.741669,8490
绿城全运村百合苑B区,123.477745,41.688992,12594
恒大江湾,123.557043,41.777913,7940
金地长青湾,123.517489,41.760064,14010
伊湾尊府,123.49526,41.746784,8643
金地长青湾·天阅,123.524779,41.759092,14215
泰荣湾,123.532459,41.752356,10128
艺术家园,123.47505,41.750569,7590
博信双E港,123.47174,41.713712,8487
浦江苑一期,123.452886,41.748469,9817
府城铭邸,123.447368,41.685785,8650
浦江苑御品,123.443123,41.743681,11616
绿城沈阳全运村·百合苑A区,123.475048,41.6881,12758
富腾国际,123.463427,41.749525,7358
月星中央公园,123.474207,41.70952,8410
荣盛紫提东郡,123.560109,41.775746,8519
隆河谷,123.425117,41.703467,11409
美地庄园,123.521332,41.676838,8275
绿城全运村锦兰苑A区,123.479316,41.683306,13630
新华国际公寓,123.465362,41.752216,8338
月星国际城,123.476539,41.708121,8486
华发岭南荟,123.494034,41.744016,10950
浦江盛景湾,123.451597,41.748819,13067
格林英郡,123.398559,41.730947,9614
金地艺境,123.571958,41.797654,12307
世纪新城五期,123.456192,41.732036,6047
金水花城二期,123.475267,41.753766,9729
金地滨河国际·上城,123.520843,41.754931,12304
同方世纪大厦,123.46439,41.724226,7573
正大江南水乡一期,123.504537,41.747648,8404
在水一方西园,123.51022525032,41.757833370531,7198
慧缘馨村,123.496869,41.750217,8473
河畔新城一期,123.48111883479,41.754452824095,11162
河畔新城五期,123.484189,41.750119,11986
在水一方东园,123.51423563822,41.758384652563,7747
沈阳奥体万达公馆,123.465999,41.739837,13182
格林馨港湾,123.502126,41.750895,11460
金地檀府,123.464905,41.719693,14302
文华街三号院,123.529041,41.752946,8462
新华佰代宜居,123.449179,41.734451,9841
名流印象一期,123.476245,41.741305,9459
世纪枫景汇,123.468878,41.732996,9720
香堤湾,123.508816,41.758693,8990
坤泰新界,123.482471,41.744515,7984
金地长青湾·丹陛,123.521705,41.758787,14016
名流印象三期,123.474805,41.739645,9785
浦江御景湾,123.440301,41.742765,12690
亿丰南奥国际,123.474992,41.742712,9413
金地滨河国际,123.520654,41.753558,10952
塞纳家园,123.509777,41.753184,8524
首创光和城,123.472774,41.705325,8915
金水花城一期,123.475347,41.756152,7243
文澜苑北区,123.48431258315,41.736824152241,5574
旭辉御府,123.453046,41.695349,10142
信达万科城(理想城),123.445468,41.698267,6748
绿城全运村翡翠园A区,123.474748,41.685916,16643
融大浑河湾,123.446417,41.737928,11092
左岸慧晶,123.490719,41.756015,11808
荣盛爱家郦都,123.439604,41.739927,11975
瑞宝国际花苑,123.458249,41.747051,9085
德馨苑,123.464471,41.750688,5916
金地棕榈岛,123.522785,41.762756,12353
伊丽雅特湾二期,123.444894,41.741181,11822
盛世园田居,123.51458,41.701128,6294
河畔新城四期,123.481664,41.750105,11164
伊丽雅特湾一期,123.448191,41.745028,12029
亚泰国际花园,123.4498,41.721639,7331
阳光新嘉园,123.42782062842,41.701458667287,5803
唯美品格,123.441889,41.712456,8238
河畔新城二三期,123.48475007409,41.754085813064,9537
名流公馆,123.433503,41.741064,12976
佳园新村,123.45645289032,41.744266713921,7067
伊丽雅特湾三期,123.448127,41.743086,8939
绿城全运村锦兰苑B区,123.48325,41.683697,15435
富都丽景,123.4896009553,41.7531457241,8870
政发物业,123.45629632698,41.746050485188,7085
盛天家苑,123.429339,41.691045,4455
廊桥国际,123.465254,41.710431,6882
富力国际别墅,123.544423,41.652865,13775
玫瑰园,123.524436,41.674953,6929
博荣水立方,123.501318,41.722208,6473
富城铭邸,123.421946,41.692586,8576
凤祥二期,123.45448557186,41.746982441595,7639
康泰家园,123.446097,41.723509,6435
会展壹号,123.405916,41.704879,9691
百荷湾,123.4351065547,41.692335868759,7594
鑫科苑,123.49207279308,41.752902640994,10789
信达理想城二期,123.444298,41.699621,7578
泰莱枫尚,123.444801,41.69376,7783
移动馨苑,123.444722,41.744418,10264
汇水湾,123.482893,41.733852,7601
江户雅致,123.453054,41.743328,14007
金海园,123.49003939891,41.754657462403,9993
嘉华新城西区,123.49246939304,41.738746856695,6379
绿色家园B区,123.52469476195,41.695281981998,7200
卓越平方小区,123.466989,41.713065,6419
桃花源,123.506716,41.744522,7722
优品天地一期,123.499179,41.736996,9334
优瑾新村,120.514505,30.913668,7058
人信奥林花园圣火苑,114.186345,30.520229,15890
人信奥林花园冠军苑,114.18911,30.513769,15523
金色港湾二期,114.183805,30.520069,20402
绿地香颂,114.218138,30.522877,38570
观澜太子湖,114.191509,30.526089,17846
华茂中心,123.468967,41.693641,8252
世纪新城,123.451187,41.731233,7124
新城印象,114.243834,30.523635,17327
金地滨河国际·悦城,123.525945,41.755476,11016
ICC汉阳国际公寓,114.194542,30.53427,15000
融城时代,123.453769,41.737095,9607
招商公园1872二期瑞府,114.230191,30.537172,18016
保利达江湾城三期,123.464351,41.753509,12110
人信奥林花园二期五环苑,114.186601,30.517264,15035
国博天墅,114.239392,30.512221,19409
华润奉天九里,123.503577,41.754335,14349
东亚国际城,123.531936,41.754897,8052
保利达江湾城二期,123.460493,41.752803,13105
金地檀郡,123.447282,41.73592,15032
金地滨河国际·左岸,123.529785,41.757128,11047
名流印象二期,123.474493,41.741066,9592
保利达江湾城一期,123.462959,41.753146,13152
金地国际花园,123.491695,41.750231,12862
金地锦城西区,123.459424,41.718088,11430
中房金河花园,123.457665,41.733391,8853
中海康城橙郡,123.472645,41.708499,10704
LOHAS上院,123.461719,41.72663,8890
招商公园1872一期茂园,114.231376,30.539053,17037
郡原小石城,123.411179,41.697683,8127
万科新里程,123.513382,41.749717,9562
泛美华庭,123.458691,41.745486,9560
碧桂园泰富城,114.211407,30.513575,17902
金地檀溪,123.525572,41.75704,12713
名流印象四期,123.472181,41.737862,10185
万科金域蓝湾,123.496167,41.754263,15074
华发首府,123.466295,41.739318,13025
金地澜菲溪岸三期,114.216395,30.518133,25144
招商公园1872四期璟园,114.229536,30.540188,18987
SR国际新城,123.45908744974,41.738131477795,8625
欣隆壹号公馆,114.227557,30.528064,14116
招商公园1872三期尚府,114.228309,30.537871,17054
万科新榆公馆,123.439042,41.721186,9094
万科明天广场,123.465537,41.729254,12748
金色港湾五期,114.184195,30.521088,17861
沿海赛洛城一期,123.466728,41.736552,9221
绿地中央广场三期,114.222952,30.52099,33366
青澳都市尚巢,114.193962,30.53698,14780
首创国际城,123.452151,41.738941,10564
观澜御苑,114.190967,30.512486,17881
泰盈七里香堤,123.600685,41.933727,3078
龙湖滟澜山,123.60692,41.950978,6112
华皓英伦联邦,117.151336,36.650866,21273
华创观礼中心,117.1365,36.662477,18716
重汽1956,117.155324,36.66245,23039
海信龙奥九号,117.144281,36.660805,14132
德润天玺,117.16208,36.66109,21416
东荷苑,117.142227,36.655574,27981
高新绿城玉蘭花园,117.149719,36.65142,24416
玺园,117.13738384036,36.655561464489,29131
鲁邦奥林逸城,117.160355,36.663558,21484
舜奥华府南区,117.15080844264,36.657942529863,26427
涵玉翠岭,117.16031475002,36.650835046019,21285
中海奥龙觀邸,117.13903465019,36.657614492767,24700
舜奥华府,117.152068,36.660909,26571
中铁逸都国际,117.16945,36.655082,18911
新泺大街3003号,117.128698,36.679144,14947
智慧园小区,117.145515,36.678574,14623
中海天悦府,117.150042,36.68006,23257
万科麓山,117.137192,36.667965,26698
中垠雅苑,117.132328,36.684268,24006
万科金域国际,117.138274,36.667931,24011
黄金时代,117.137171,36.675538,20642
国华印象,117.154171,36.67849,25671
龙园,117.15598729359,36.675146821247,20222
雅居园小区,117.132211,36.67886,23747
山钢新天地,117.123129,36.687199,23728
丰奥嘉园南区,117.11521368882,36.693536577639,20646
中铁汇苑,117.12594102432,36.681875625847,25622
丰奥嘉园北区,117.11495336606,36.696085377144,20108
康桥颐东,117.126049,36.677286,23622
理想新城,117.144989,36.694408,11582
小鸭集团宿舍,117.14260284272,36.698022302245,18276
水晶东座,117.142497,36.700427,17098
米兰小镇西区,114.201124,30.532691,15983
兴华御水澜湾,114.243099,30.533866,15335
星光国际,114.225776,30.530604,16723
中环湖畔,114.193309,30.531638,12219
御亭水岸花园,120.459044,31.42505,13205
鹤溪佳苑,120.458506,31.423937,12426
紫薇花园,120.459553,31.430339,10724
望馨花苑,120.453444,31.42988,12079
嘉元路1069号附院,120.628698,31.375584,14500
亿象新天地,120.616163,31.386015,10739
领寓商务广场,120.645757,31.426139,9310
高铁新城圆融广场,120.643975,31.427353,21821
建发中泱天成,120.655338,31.4171,24245
金科观天下,120.656546,31.42072,26305
名莲别墅,120.612007,31.509154,18000
东渡湖韵青城花园,120.611725,31.499035,15725
漕湖之星,120.630271,31.499167,7993
北苑馨居,120.606758,31.517661,13421
盛北花园六期,120.608758,31.52176,7692
盛北花园,120.608388,31.518638,7135
漕韵家园,120.613555,31.502027,13419
天宇佳缘,120.608402,31.516954,11765
德诚嘉元广场,120.641874,31.378533,11593
国际服装城B区,120.637492,31.3827,14070
静湖别墅,120.659286,31.372458,31307
紫金湾,120.654029,31.368328,29735
国际服装城梅竹坊,120.6347,31.383789,14956
天伦小区,120.625294,31.378597,15818
国际服装城拾英坊,120.63523,31.383142,13310
金磐金花园,120.647977,31.362285,22400
合景峰汇商务广场,120.615915,31.370416,10526
智海商务广场,120.61659,31.368011,10667
万家邻里中心,120.608136,31.367456,13560
绿地海域乾唐墅,120.621899,31.371021,28854
繁花中心,120.613813,31.367502,13033
御苑家园A区,120.606605,31.365514,16181
玉成家园二期,120.615418,31.391146,14999
合景峰汇七期,120.609477,31.371676,23945
恒基花漾LOFT,120.613018,31.376744,16087
中翔丽晶,120.644464,31.382775,7454
国际服装城兰菊坊,120.636299,31.382321,14216
中锐琅石名筑,120.637022,31.374009,24206
古巷二村西区,120.63982102183,31.367262419205,13177
江南村,120.662537,31.374058,28828
古巷二村东区,120.64182179195,31.366010281094,17101
绿色时光花园东区,120.638122,31.385588,16288
银丽高尔夫,120.665242,31.371145,33356
消防小区,120.643844,31.365833,21749
登云家园,120.651336,31.41077,15001
庆元家园,120.63241289456,31.391905754693,13672
中翔商贸城二区,120.646368,31.365987,12106
天鹅湖庄园,120.656749,31.37742,22484
新尚商业广场,120.647541,31.363061,11253
正源悦庭,120.651628,31.406128,19437
中粮祥云国际,120.632486,31.390066,16500
三江尊园,120.652616,31.371795,32583
中翔商贸城三区,120.646909,31.366867,13352
中环百汇商业广场,120.632991,31.370012,8750
绿色时光花园西区,120.635732,31.385522,12626
漕湖花园六区,120.625652,31.472134,10976
漕湖花园三区,120.621573,31.468338,14246
尚青景苑,120.592169,31.464065,12993
漕湖花园四区,120.619489,31.469748,14138
鑫之苑,120.641571,31.428208,21935
合景峰汇八期,120.618344,31.372008,23450
合景峰汇二期,120.609753,31.369545,23251
合景峰汇六期,120.607429,31.371761,21892
康桥溪岸花园,120.614272,31.39514,22524
合景峰汇三期,120.611199,31.371364,23567
合景峰汇一期,120.611512,31.370185,23731
姑苏裕沁庭,120.60638,31.392115,25309
合景峰汇五期,120.607259,31.369958,23622
华润城立方,120.607741,31.384196,23799
玉成家园,120.617735,31.388235,17186
合景峰汇九期,120.61663,31.370709,24268
金御华府,120.614387,31.391735,22353
御窑花园,120.617712,31.365359,15247
华辰嘉园南区,120.601295,31.369464,22213
西湖君庭,120.613463,31.389888,22107
华润橡树湾3期,120.608513,31.38321,19585
华辰嘉园北区,120.603168,31.372254,21528
合景峰汇四期,120.605545,31.371819,23521
合景峰汇十一期,120.612902,31.370217,16112
御苑家园B、C区,120.602644,31.365992,15968
水韵花都家园二期,120.608431,31.378602,21101
招商依云华苑,120.60303,31.39494,21172
水韵花都家园,120.606153,31.378713,21939
首开班芙春天花园,120.610894,31.385237,19373
恒基水漾花城,120.619667,31.38133,20710
金辉融侨城,120.611244,31.367895,23504
橡树湾花园,120.614804,31.386418,18523
万科北宸之光,120.616092,31.397774,22083
芙蓉新村,120.626566,31.402723,14882
合景峰汇十期,120.612219,31.371761,12115
万客隆商城,120.635652,31.396608,9434
华园丽都阳光,120.447811,31.426744,13182
金色港湾四期,114.18665789907,30.526255112969,15723
御水华城,114.241961,30.536969,15264
翰林苑小区,114.199466,30.532898,13487
御亭花苑,120.463035,31.425445,12281
海伦春天二期,114.191447,30.537879,16058
海伦春天一期,114.192614,30.53819,16926
和昌森林湖,114.210621,30.541059,18518
中铁世纪金桥,114.234251,30.523231,16357
名流印象,114.247946,30.532144,15351
和昌都汇华府,114.221192,30.520863,16996
观澜高尔夫公馆,114.201666,30.513989,16445
嘎纳印象,114.188809,30.527529,16238
开来都市丰景,114.20582,30.528171,15809
太子湖1号,114.18931730447,30.52397313848,17184
广电兰亭盛荟,114.243913,30.521135,18689
新城璟悦城,114.20993,30.524604,15932
新城春天里,114.24953937879,30.535114632528,15824
观澜国际,114.227625,30.531947,16644
卧龙墨水湖边,114.236342,30.536966,17991
武汉国博新城,114.234768,30.514928,17727
招商公园1872五期怡府,114.231376,30.539053,32676
纽宾凯汉city国际社区,114.2135,30.539951,16782
广电兰亭时代,114.222308,30.518302,16762
绿地中央广场,114.221591,30.520386,16450
佰尚商务广场,120.587983,31.388379,11148
金地澜菲溪岸,114.217952,30.519758,17352
天亚水景城,120.657979,31.380521,16765
嘉元花园北区,120.631407,31.374597,15089
安元佳苑一区,120.625667,31.395221,12641
乐苑小区,120.637371,31.369229,18810
天湖之春,120.652149,31.365414,15809
华美福邸,120.627679,31.362966,21747
国际服装城A区,120.639699,31.383843,14334
湖沁花园东区,120.65028491201,31.368275721884,13808
郦岛原墅,120.656272,31.379766,15370
邻蠡广场,120.642308,31.409772,10681
派克公寓,120.650285,31.364361,10843
安元佳苑二区,120.627602,31.396276,14769
天虹品上中心,120.644553,31.377769,12175
华美家园,120.62717943758,31.365566919228,17211
太阳花园,120.651147,31.412684,14923
安元佳苑三区,120.632372,31.394989,12609
知音别苑,120.629819,31.383311,15858
星云汇生活广场,120.641226,31.371087,12050
香府绿洲,120.649835,31.370073,23298
海亮香榭时光,120.630051,31.359926,10207
依云水岸,120.665376,31.376181,23723
永金商业广场,120.629914,31.3588,15085
书香国际,120.651448,31.36416,16184
安元佳苑四区,120.632462,31.39796,14320
誉相庭,120.647666,31.364311,23167
书香苑(相城),120.627962,31.391633,12891
晨曦怡庭,120.635085,31.398384,16064
德诚公寓,120.641203,31.378367,8312
湖沁花园西区,120.64798,31.367646,15305
和沁园,120.73745,31.488602,16591
阳澄花园东区,120.735785,31.493077,9600
聆湖丽墅,120.744634,31.491668,20499
阳澄花园西区,120.732346,31.493501,10537
盛世花园,120.698631,31.43853,13386
中惠爱丁堡,120.732233,31.489972,14630
金澄天地花园,120.697145,31.437416,15073
卓兴澜庭,120.693291,31.439924,15459
金澄花园二区,120.700029,31.439747,11631
春天璟墅,120.695806,31.435052,19540
金澄花园一区,120.702769,31.434511,9692
东渡海派青城,120.691616,31.435648,20455
阳澄领岛别墅,120.718006,31.4572,25631
阳光景庭,120.689576,31.439423,17986
西子花园,120.649695,31.405513,16958
雅戈尔紫玉花园,120.626497,31.36961,18491
南亚花园,120.654727,31.376605,15304
星湖花海,120.655297,31.395402,17468
万泾花园,120.629094,31.372697,17291
康锦苑,120.655612,31.373876,16496
泰元家园,120.64732,31.404278,15168
红鼎湾花园,120.658509,31.391314,17944
荣盛阳光名邸,120.640852,31.367348,19500
香城花园二区,120.643493,31.35987,19762
鑫鑫国际,120.652004,31.37991,13141
嘉元花园南区,120.631147,31.371395,13454
花南家园,120.619643,31.360595,17664
晨曦馨苑,120.636949,31.365864,20501
元和之春,120.629857,31.386123,16643
花好月圆,120.625042,31.379495,18575
凯翔国际广场公寓,120.644715,31.368704,12734
南山檀郡,120.640992,31.373494,25950
万宇名都花园,120.635463,31.393637,19466
晨曦印象花园,120.63827,31.359138,19366
香城花园一区,120.64335668224,31.36296909085,17821
香城花园三区,120.63884164271,31.362387912553,20744
海亮香榭里,120.630818,31.358545,24525
锦绣江南,120.626228,31.382139,16563
香城颐园,120.632534,31.361166,22634
康桥丽都,120.637031,31.376594,21835
欧风丽苑,120.632471,31.365159,19689
嘉和丽园,120.625491,31.384944,17374
永嘉花园,120.594706,31.382609,17719
佳兆业君汇上品,120.590233,31.388863,16874
相韵花园,120.598021,31.3821,16287
尚景湾,120.601399,31.384135,16308
荷美名邸,120.594907,31.406873,20527
丽滩别墅,120.561801,31.433538,18089
金星花苑（二区）,120.564472,31.434993,13589
盛园,120.517945,31.436251,15702
憧憬新村,120.579548,31.441811,12188
裴巷新村,120.560869,31.436168,9865
商城花苑,120.561945,31.438283,11571
冠城水岸,120.562713,31.432425,14701
泰峰名人金谷园,120.556025,31.441171,14158
建邦唯园,120.569168,31.421267,24520
裴圩家园,120.554526,31.436258,12286
金星花苑,120.561843,31.435322,9707
冠城大通蓝湾,120.568134,31.423601,18658
春申景城,120.557813,31.440436,14929
玉莲新村,120.565558,31.449819,11712
建邦华府,120.562287,31.445477,17619
融创81栋,120.563149,31.423247,26545
咏春花苑,120.542937,31.430149,11000
丽岛别墅,120.55537,31.431381,16813
宝润168广场,120.678651,31.471882,5785
御湖佳苑,120.657342,31.470457,16306
翡翠家园东区,120.677497,31.460085,10000
渭星花园,120.661779,31.472445,18692
金艺百汇广场,120.65275,31.467178,13200
朗悦湾,120.672635,31.467852,14748
商苑公馆,120.653853,31.466028,13644
辛祝路60号,117.090557,36.69617,12430
丽致星河,120.664177,31.468506,12000
湖岸明珠,120.671035,31.473291,9576
玉盘家园,120.667367,31.475245,11575
朗悦湾西区,120.670213,31.468198,15417
合景峰汇瑜翠园,120.630249,31.47032,14821
渭塘之星,120.673457,31.466655,6364
辛祝路76号,117.092156,36.695533,15249
海伦堡珍珠湾花园,120.671862,31.47651,25000
七里堡社区东区,117.07631697567,36.697968085895,15176
祝甸社区,117.090393,36.699436,15041
洪苑小区,117.077639,36.695533,18780
七里堡北区,117.07755187132,36.699495209932,16835
燕舞园,117.09505929769,36.695952012539,17213
七里堡小区南区,117.08028863633,36.697626653023,16947
假日丽景花园小区西区,117.0984152097,36.698990419853,21320
化纤小区,117.094725,36.698687,20404
泉印兰亭,117.09000973773,36.695165643805,20881
保利海德公馆,117.084767,36.700347,19731
上海花园,117.0966003024,36.705544712943,18976
富翔天地,117.08343015596,36.69385397509,19807
西塘小区,120.651251,31.177034,12554
静怡小区,120.644163,31.178283,11313
鱼行街散盘,120.723192,31.163227,32635
龙河花园,120.636752,31.118904,16239
华东商业城商务公寓,120.678973,31.189596,7112
正大家园,120.653073,31.173775,13228
亨通吴越锦绣,120.633082,30.92705,11111
明丰环湖花园,120.866213,31.04149,16500
水城名邸,120.868099,31.040858,12696
明丰花园,120.848397,31.023498,9941
江南岸,120.835817,31.03289,15764
嘉乐城,120.85817,31.040393,13214
华府壹区,120.861647,31.036038,14474
香悦水岸,120.875041,31.055089,11079
丽湖华庭,120.395547,30.949297,6447
太湖明珠南泊湾,120.411387,30.961981,7388
福和苑,120.60678,31.07194,9569
南港悦府,120.479251,31.00341,9267
嘉鸿花园,120.655108,31.172704,12447
望景华庭,120.551112,31.018887,9807
蚕花公寓,120.67028,30.91242,7747
湖滨花园（吴江）,120.657068,30.909451,8922
新华花园,120.678212,30.907742,10337
锦江家园,120.653274,31.176955,15000
新湖明珠城米兰苑,120.635591,31.18643,20220
吴越尚院,120.632709,31.17796,18333
吴越祥院,120.639285,31.177408,16820
新湖明珠城罗马苑,120.637157,31.188882,19326
新湖明珠城丹桂苑,120.64072,31.184214,19191
江南水乡满庭芳,120.732037,31.15783,16279
竹行街,120.723712,31.162999,23077
紫来华府,120.732271,31.151468,11015
中粮本源,120.741678,31.17523,17342
多元小区,120.169977,36.013579,19440
黄河中路247号,120.15100096732,36.025597819662,11287
黄河中路410、412号,120.1447213936,36.024118176539,14379
黄河中路384、386号,120.14759915315,36.02424223724,13407
马家楼社区,120.17315067755,36.043178485378,14129
金帝苑小区,120.117613,36.023669,14997
世纪新苑,120.16970727346,36.036298233821,15358
辛明园,120.14984570539,36.030213754515,15308
吴越祥庭,120.640469,31.179942,17312
龙庭锦绣花园,120.647941,31.177737,14915
九龙豪苑,120.651578,31.184638,15873
吴越嶺秀,120.635991,31.176547,16372
垂虹家园,120.655948,31.159166,15503
丽景国际,120.668126,31.16856,14307
新湖明珠城聆湖苑,120.645151,31.192114,19394
阳光悦湖豪苑,120.632275,31.166226,15462
星宝花园,120.666401,31.139875,16666
东方海悦花园,120.667083,31.172542,13724
三官桥小区,120.648533,30.989693,7738
欧风华庭,120.633882,31.174148,15896
鲈乡二区,120.647266,31.169371,13200
莱福公寓,120.649311,31.160767,12953
盛世名门,120.640007,31.165398,12426
云梨小区,120.667367,31.165667,8785
鲈乡四区,120.646822,31.170774,10303
锦安小区,120.6359,31.170359,11188
中山同仁嘉园,120.655904,31.174539,17013
阳光新天地,120.660426,31.139671,14979
垂虹路313号小区,120.655589,31.160524,12621
联杨新村北区,120.639176,31.129673,12183
锦怡花园,120.636019,31.174967,16751
梅石小区,120.631288,31.161248,14646
山湖花园一区,120.694219,31.163696,14782
山湖鸿雅苑,120.693011,31.154145,11720
新都汇城市广场,120.661797,31.147873,8357
湖滨华城畅意苑,120.631281,31.130392,14179
瑞景国际,120.65304,31.128735,15907
香江花园,120.659151,31.170528,11917
星湖湾花园,120.668664,31.157648,14465
伟业银座,120.668318,31.168032,9084
山湖秀峰苑,120.698798,31.157756,11262
鲈乡二村,120.642329,31.168927,11931
金域华府,120.656621,31.147701,15208
百盛花园（吴江）,120.654338,30.983744,8930
鼎基丽湾域,120.628461,31.154319,12902
奥斯卡花园,120.670074,31.170765,11800
锦尚花园,120.679979,31.072033,11429
水乡花园,120.644156,31.15556,11149
捷达名轩,120.668188,31.164001,11212
亨通长安府,120.656213,31.136191,15621
景瑞东环之歌,120.679045,31.186692,16818
湖滨华城吉祥苑,120.630576,31.126926,12184
格林华城,120.682552,31.187371,16333
山湖嘉晖苑,120.693704,31.157852,12517
格林悦城花园,120.683576,31.188603,14674
南悦豪庭,120.6399,31.122814,11123
朗诗太湖绿郡,120.631169,31.119167,24638
湖滨华城富贵苑,120.636752,31.134701,12913
中南世纪城,120.646808,31.135589,18652
美岸青城幸福里,120.665717,31.174504,13727
奥林运河湾,120.671381,31.188598,13379
卓锦兰香,120.668125,31.159749,13633
奥林清华,120.641589,31.144823,21131
阳光嘉园,120.672707,31.186993,12726
苏高新地产天城花园,120.669998,31.138502,14900
天和人家,120.647857,31.180869,11932
新柳溪花园,120.647489,31.187684,12735
蓝光天悦城,120.622341,31.149139,22075
吴江新城吾悦广场,120.625482,31.143134,15654
伟业迎春城橙家,120.661307,31.210955,15926
中房颐园,120.618712,31.149556,20420
首开太湖一号,120.608226,31.146399,20405
绿地太湖城,120.604489,31.132614,19707
新城招商香溪源,120.645416,31.228388,17661
苏州湾壹号,120.600968,31.148871,22549
西湖花苑,120.647212,31.205998,15246
吴江上海城,120.640019,31.182204,14200
伟业迎春丽家,120.659286,31.219154,15924
丽湾国际,120.638912,31.18008,14369
青青世界,120.16961987607,36.032933284546,12105
新湖明珠城紫桂苑,120.642713,31.187264,18689
辛明园东区,120.15313119313,36.030032995827,16768
顺源家园,120.16240108107,36.030298114245,11859
伟业迎春世家,120.653735,31.217673,16568
黄河中路226-230（双号）,120.15269945674,36.025119491646,13524
华润凯旋门,120.628564,31.142443,17245
新湖明珠城望湖苑,120.634061,31.184864,17693
正友花园,120.14331757045,36.023302672804,15044
天智苑,120.17096,36.033017,15241
珠山苑,120.1691519657,36.031155398462,13812
伟业迎春华府,120.657528,31.217394,16181
海亮长桥府,120.653572,31.184529,17855
伟业迎春乐家,120.661239,31.212704,16889
新城红树湾,120.641264,31.228294,18800
临港花园,120.168513,36.013078,16206
冠庭江山,120.17497,36.036603,17308
丰泽家园,120.1714396587,36.03347178679,10335
东小庄社区,120.15716366343,36.020278536151,16510
珠海雅苑,120.16849654699,36.013358733318,12624
蜊叉泊社区,120.158434,36.011819,11189
世纪新村,120.16668110846,36.031114095171,12526
蓝色港湾,120.171397,36.037726,13950
鑫汇阳光,120.170713,36.013915,18091
铁路小区,120.174554,36.034752,12783
新港花园,120.17662367069,36.018466785747,16116
薛家泊子社区,120.16583592888,36.029003203693,16650
兴宝苑,120.15857253896,36.027414703809,17895
芙蓉苑,120.156777,36.028837,16267
星河嘉园,120.164379,36.026449,17742
澳柯玛科技人才公寓,120.15111598366,36.018533698971,13831
兴悦华城,120.15900989477,36.02295483898,17800
福瀛国际公寓,120.14634340165,36.031060217703,7446
鲁泽观天下,120.17441291236,36.031891257631,13526
海尔幸福里,120.15990676647,36.013309838963,16967
兴悦华城西区,120.15539989801,36.022943491231,17251
德兴东街,116.985006,36.65514,14205
奥莱汇,114.267731,30.73571,13520
F、空港中心城,114.264698,30.714639,12323
巢nest,114.259141,30.708436,14417
未来海岸,114.280019,30.752674,11068
巢上城俊园,114.252762,30.708612,12237
汉飞向上城,114.279266,30.714121,15655
奥特莱斯V公寓,114.263451,30.739404,9534
罗纳河谷,114.260697,30.690955,10764
龙城懿品,114.271385,30.713461,12922
中城时代商业街,114.292332,30.709561,13075
名流人和天地五期,114.285408,30.720602,13020
天纵颐景康城,114.266735,30.72676,13288
名流人和天地六期,114.281888,30.718659,12649
日月山水西区,114.303365,30.700651,12582
天玺花园,114.274437,30.72625,11293
一品国际,114.29146,30.711829,13172
哥特帝景,114.25284,30.711928,11613
盘龙新天地一期,114.250628,30.715373,9534
名流人和天地三期,114.281836,30.718653,12488
天汇龙城二期,114.276905,30.717099,12806
宝安中国院子三期,114.262685,30.703959,26380
名流人和天地一期,114.281407,30.716247,10905
28街,114.270227,30.72033,11092
恒达盘龙湾荷苑,114.270695,30.730301,15054
巢上城御墅,114.254971,30.706721,13267
F学府,114.255146,30.7381,12646
汉飞洋房印象,114.255561,30.689526,11189
盘龙新天地二期,114.250896,30.713568,10394
珩生领袖城,114.269092,30.717014,11634
天纵城,114.310286,30.69892,13014
龙城.天居园,114.260448,30.716245,13476
盘龙水岸沁园,114.275773,30.73411,9642
F天下,114.257501,30.725233,24234
恒大龙城,114.233952,30.728081,11450
宝安中国院子,114.262316,30.701637,17113
汉口湖畔,114.264619,30.733312,13248
中铁财智中心,117.127333,36.689456,13358
珑璟轩,114.254194,30.717883,25859
巢上城锦园,114.25661,30.708321,12967
天汇龙城,114.276422,30.71741,12360
盛世花城公寓,117.130877,36.694672,12655
鼎鑫摩卡小镇,114.253574,30.714596,11878
高新万达广场,117.135025,36.692972,20347
歌林花园,114.261816,30.715334,12240
汇展香格里拉,117.12943188864,36.693108555846,10687
万润橄榄城,114.250825,30.727528,12537
未来城,117.140741,36.695063,21177
恒大名都,114.298536,30.704618,12229
盛世花城,117.133226,36.694795,19611
普利槐荫大厦,116.974276,36.656866,9946
新生活家园南区,117.127495,36.694549,21713
鑫苑国际城市花园,117.141875948,36.691690851082,20828
道德商城,116.982324,36.660315,17618
连城国际,116.988559,36.655354,16625
东小辛庄1到4号楼,116.988267,36.656067,20800
振兴街小区,116.983016,36.656439,19938
经七路,116.976436,36.655024,18582
北小辛庄东街,116.974734,36.656812,16983
兴盛小区,116.986398,36.658115,18741
新世界阳光花园西区,116.97572762756,36.658146722449,21984
新世界阳光花园东区,116.98072953018,36.659101448319,21280
振兴花园,116.98136913515,36.655463991153,18798
百合馨苑,121.601494,37.41901,6883
嘉日华庭,121.608012,37.409817,5670
凤麟水苑,119.03270492213,31.643801248192,10459
卧龙湖小镇,119.06058507383,31.727043039102,9896
胜芳园,115.982386,40.469567,32617
梅苑小区,121.59786188883,37.386196257402,5746
西桂里小区,121.60237574152,37.392036996985,5946
廣聯花園,121.610055,37.385922,4445
东方花园A区,114.168433,30.504481,10474
东华城市花园,121.569968,37.397871,4602
海滨城花园,114.142157,30.486905,10854
人民武汉国际汽车城,114.055401,30.455128,7846
摩根空间,114.159844,30.48548,13467
水木清华,114.158656,30.515672,13881
人信千年美丽,114.116263,30.519636,11328
汉阳满庭春MOMA,114.119875,30.473712,12758
世茂龙湾3期,114.092261,30.512364,15344
中冶枫树湾,114.118729,30.476097,11474
大洋彼岸,114.126385,30.525109,11043
中国健康谷,114.121438,30.544123,13605
中国核建锦城,114.064941,30.569165,12527
学府丽城二期,114.152348,30.52614,12994
金桥普林斯顿,114.154309,30.527969,13450
凯德悦湖,114.091567,30.534434,9513
世茂龙湾四期,114.09207,30.495668,15961
海伦小镇,114.174433,30.423974,8847
水墨兰庭,114.17345,30.51426,18424
恒大绿洲,114.1304,30.555785,12519
天鹅湖假日山庄,114.1768,30.512209,23115
锦绣豪园,114.146729,30.466265,21258
联投半岛,114.144731,30.496096,28145
联投金色港湾铂睿,114.157538,30.521493,15763
爱佳798,114.157868,30.506314,15333
泰合百花公园,114.167707,30.510834,15010
联投金色港湾剑桥郡,114.157394,30.524728,16920
联投金色港湾星座,114.159934,30.523982,14868
西苑小区,121.5784338961,37.396781241986,4563
海天幸福小城,114.142303,30.472264,11446
世纪花园,121.62026637341,37.404487964262,3703
湘隆时代大公馆,114.173487,30.503494,17699
万科翡翠玖玺,114.186362,30.504113,20351
港湾江城,114.200739,30.466076,12953
宁康园,114.177234,30.500792,14579
联投金色港湾一期,114.158816,30.523663,16076
长江楚韵,114.224294,30.47819,11907
武汉经开万达广场,114.180531,30.512451,8208
东油小区北区,121.6167064875,37.401243923739,4406
天成花苑,121.60460972913,37.383580741257,6978
龙湖花屿墅,121.602988,37.448162,26137
原石滩,121.693249,37.456231,12535
海伦国际,121.595136,37.384369,4990
东华丽景花园,121.56531308831,37.396154247621,5646
阳光馨苑,121.58592094957,37.409690929373,8301
东油南区,121.61663948715,37.399451346307,4315
翰林晨苑,121.59210860525,37.400762028237,6883
崇文花园,121.592162,37.405508,7448
新城花苑,121.59525870733,37.411597717167,7095
沙河崖小区,121.597481,37.405582,3533
曙光小区,121.6166204817,37.403885536261,4720
中央公园,121.60604286352,37.401111105021,5238
瀛洲宁海,121.587092,37.39964,6565
星泰花园,121.59130921065,37.403739967131,4923
东华苑,121.57440312897,37.396033702478,6450
海屿公元,121.603859,37.421428,6605
山海龙城一期,121.603071,37.430934,8070
紫金花园,121.56585641769,37.40349156811,7160
龙湖唐宁ONE,121.601236,37.446267,7570
龙湖时代公馆,121.606211,37.449342,7256
云海香都,121.57296734702,37.405557533349,6183
慢城宁海,121.568375,37.409898,6181
安德利迎海花园,121.60298122655,37.436000943688,7263
金地澜悦,121.52638803478,37.451856706268,12509
紫金山庄,121.587715,37.434701,7225
龙湖葡醍海湾,121.599808,37.442834,12716
天房檀珑湾,121.60686521072,37.435063246605,7236
尚书苑小区,115.984289,40.474167,45390
上都首府家园,115.990542,40.445083,30632
双路小区二期,116.010494,40.469485,35189
湖南小区,115.990331,40.457696,34105
东关新区,115.98744,40.463971,23922
燕水佳园,115.995378,40.446257,26838
格兰山水,115.98085,40.472856,47818
龙庆望都佳园,115.905009,40.382911,16978
石河营东街,116.003879,40.467177,28184
高塔小区,115.98612,40.472068,31588
八达岭镇住宅小区,115.986143,40.365768,26215
兴隆南街1号院,115.908647,40.377998,20209
龙聚山庄,115.968003,40.527501,23709
清凉盛景,115.984581,40.366166,48326
环海小区,120.370777,36.247716,14673
夏庄村锦宏小区,120.465715,36.267161,14528
龙湖悠山郡,120.438135,36.32665,20612
恒大御澜国际,120.429486,36.269096,12678
国宏雅居,120.392846,36.291579,16985
陽光美寓,120.42111612485,36.24769331074,16709
城明别苑,120.387965,36.293359,17897
城中城悦景,120.399219,36.288824,19317
正商红河谷,120.417405,36.260152,18502
天竺嘉园,120.400024,36.284978,17608
厚德森林国际,120.417429,36.272293,16032
鑫江拉菲庄园,120.42544728703,36.239952221486,18909
鑫江水青木华,120.429758,36.246167,19569
鑫江水青木华四期,120.428103,36.248422,16013
中铁华胥美邦,120.425558,36.236266,18956
鲁邦国际风情街,120.414068,36.311139,12145
世正爱丽安,120.425936,36.31252,11466
时代中心,120.415638,36.310519,14335
春和广场,120.420428,36.304493,16372
后桃林,120.421926,36.296919,8910
富通广场,120.421429,36.309016,15886
华鹏馨苑东区,120.43051376132,36.31078770332,18656
银发大厦,120.426571,36.312746,10624
金日唐郡,120.432357,36.305562,17957
春阳广场,120.418847,36.310684,15733
富登嘉小区,120.415015,36.309099,15470
华鹏馨苑西区,120.42796,36.310717,16847
青特城D区,120.431059,36.312272,24611
青特城B区,120.431081,36.314075,19268
万科桃花源,120.427004,36.2956,19989
臻园,120.42566,36.298419,19342
青特城A区,120.428943,36.313528,21499
春阳花苑,120.41811,36.310273,17368
奥港国际,120.42500363488,36.305702663089,17338
星光之城,120.425427,36.309045,19094
时光里,120.42535400253,36.30759314087,19585
青啤TAHA时区,120.43036,36.304275,20303
桃源居,120.422166,36.302503,16207
万科城市花园一期,120.42151213701,36.300851279239,21584
万科城市花园二期,120.42553017095,36.300695326847,21292
中冶圣乔维斯,120.422126,36.307098,21046
城子村,120.375708,36.310865,10787
吉昌馨苑,120.368065,36.315174,14051
启城福邸,120.375009,36.313385,17155
翠湖家园,120.3968182268,36.202971957919,21647
御景山庄,120.40276907412,36.20223102863,21648
茵悦嘉园,120.4503337667,36.286242568612,13913
山水茶苑,120.454962,36.223339,15454
崂山水岸枫景,120.459972,36.280214,18378
海信依云谷,120.453953,36.219641,27842
百通香溪庭院,120.488564,36.278334,20227
康德居,120.410188,36.314887,16270
弘通那拉提,120.419302,36.317547,24904
青特赫府,120.425188,36.316974,22583
贵爵公寓,120.41958030649,36.313013655072,20846
水悦城,120.411948,36.312287,20001
弘通星座,120.41941424589,36.31940173661,16726
水晶之都,120.415661,36.315002,17923
弘通和田城,120.418335,36.31276,24399
万科春阳花园,120.418174,36.321608,21531
巴黎壹号,120.420976,36.318926,19682
馨盛苑,120.415724,36.312997,16058
汇豪景苑,120.41267191016,36.315538389847,20826
茵悦小城,120.420941,36.31729,22347
翰林苑,120.412996,36.317495,18351
瑞麟公馆,120.423095,36.318879,18525
顺德居,120.416926,36.317999,17406
加州枫景,120.417918,36.315222,19922
磊鑫伊顿阳光,120.450807,36.241844,15230
鑫江水青花都,120.440134,36.218297,12878
龙湖锦璘原著,120.446488,36.234857,19991
香邑漫步,120.45607863755,36.285273562543,16215
崂山水岸绿洲,120.443179,36.277622,16758
鑫江水青花园,120.446742,36.239376,18415
青实口水街,120.440482,36.310452,10289
海都汇府,120.444619,36.316904,12148
怡源居,120.43851658302,36.316786217327,18515
御景尚都二期,120.439378,36.312549,18271
华鹏东城,120.443743,36.311564,9721
祥泰正阳东郡,120.443731,36.310176,18532
御景尚都一期,120.4386,36.314328,18062
都霖馨苑,120.452687,36.315625,16729
都霖美景,120.44972126865,36.315850425858,15426
青特花溪地,120.338763,36.255978,19139
龙湖滟澜海岸,120.334774,36.256509,16154
卓越蔚蓝群岛,120.34948,36.265626,15336
雨润星雨华府,120.331299,36.287266,14939
阳光丽苑,120.394827,36.3199,16021
盈园广场,120.404315,36.317742,20963
康桥嘉苑,120.40415164747,36.333866216688,15608
盈园国际,120.404942,36.322421,14205
亿路发阳光景园,120.407434,36.321845,17716
金日紫都,120.400766,36.331426,19033
仁和居,120.404646,36.319959,17250
安泰居,120.39581,36.318006,14336
林溪美地,120.38968,36.325555,17036
地恒春天,120.245794,36.290856,12054
华鹏宜居三期,120.389455,36.315479,15477
天一仁和广场,120.386934,36.313432,15483
泰德苑,120.390801,36.316392,13276
小城之春,120.379833,36.317195,7853
华鹏宜家,120.38835,36.315665,19931
东果园社区,120.392422,36.307653,15989
长安华福园,120.39030007783,36.318356735164,13640
盈福祥小区,120.398787,36.309895,14598
新城花园,120.395365,36.315465,17112
盛世民生花园,120.38915516416,36.313715965085,17638
华城路四小区,120.39392000822,36.313325003529,16618
华城路三小区,120.39421466376,36.310434919027,15574
丰和广场,120.455313,36.309634,11243
100福国际山庄,120.533695,36.318983,18577
天一仁和智慧之城,120.519604,36.323796,14748
盛世美域,120.50116852813,36.308793716332,14710
盛世家园二期,120.48246927438,36.312339482197,13214
怡馨苑,120.49510566704,36.312827588099,14444
海信南岭风情,120.411206,36.198823,25369
龙辰丽湾,114.318487,30.696333,12723
巴厘原墅,119.02156,32.050929,33274
上怡二村,118.644659,31.908691,19871
绿洲新村,118.653398,31.907885,10437
合晋世家,120.485158,31.337111,21672
白马涧花园二区,120.50521593282,31.319199672083,18254
盘龙瑞祥熙园,114.375202,30.85319,10615
秦馀山庄,120.481619,31.340033,25668
新鹿花苑三期,120.496842,31.327581,15074
花驳岸,120.622927,31.31897,28151
桃花坞大街散盘,120.623119,31.326623,15771
养育巷散盘,120.622096,31.312168,22637
冠城大通珑湾,120.517614,31.354405,16049
宝城桥弄,120.615318,31.326053,115403
肖家园散盘,120.614443,31.314298,59889
桃花坞大街268号,120.617133,31.325815,17934
蒲林巷31号,120.624558,31.319889,23809
范祠弄散盘,120.625717,31.320026,20979
绣线巷散盘,120.624072,31.31585,19898
包衙前,120.618975,31.319098,22345
西百花巷,120.61973,31.317738,21785
桃花坞大街38号小区,120.625056,31.327615,20388
中景小区,120.621378,31.317164,23377
王洗马巷散盘,120.61958,31.318222,19857
宋仙洲巷散盘,120.618166,31.321399,20992
五峰园弄31号,120.615623,31.324015,20500
宝林寺前38号,120.615179,31.318804,25528
古吴路散盘,120.618683,31.313514,22704
龙兴桥弄一号,120.617505,31.328139,21906
牛牙场,120.624377,31.324102,17359
三茅观巷,120.618893,31.320026,20000
施林巷散盘,120.61805,31.315316,37534
万宜坊谢宅,120.623789,31.313827,20755
铁路三村,120.619678,31.332084,18367
范庄前社区,120.625294,31.318465,19793
东百花巷,120.622784,31.318022,18269
杨院巷,120.621369,31.326016,16000
人民路2051号,120.624402,31.329784,23927
西四亩田31号,120.613258,31.328627,18438
宝城桥街5号,120.615633,31.324944,15275
申庄前,120.618943,31.31408,19390
久福里,120.620411,31.323924,16000
桃花坞大街240号小区,120.618174,31.326002,20391
人民路2111号,120.622936,31.331999,17925
景德路周五郎巷15号,120.615449,31.317248,19071
桃坞才苑,120.61955,31.330389,27822
埃河沿社区,120.624393,31.317903,21658
乌龙巷,120.619457,31.319702,13529
五爱巷,120.614429,31.317847,25787
石幢弄社区,120.614928,31.326579,23683
学士花园,120.615248,31.312565,30820
通和新村,120.619544,31.311595,21879
桃坞巷,120.620904,31.330942,26898
鸿运家园（浒墅关）,120.514003,31.372859,23174
鸿福花苑,120.515328,31.367411,15538
长江花园一区,120.544254,31.345639,16552
惠泽云锦城,120.521509,31.352709,15615
鸿锦新苑,120.515166,31.373248,17820
梧桐公馆,120.524343,31.355344,17986
中交MINI墅,120.540741,31.353596,11329
云锦苑二区,120.524809,31.353765,16057
旭辉朗香郡,120.527144,31.351941,17398
长江花园二区,120.543499,31.34544,15589
长江花园三区,120.539968,31.346915,16829
水岸逸景花园,120.515894,31.372146,19863
旭辉上河郡,120.519761,31.372597,19855
朗沁花园,120.52454,31.35129,19332
恒基旭辉城,120.521688,31.365175,20965
旭辉华庭,120.517466,31.369402,20731
金科天籁城,120.501974,31.327264,19194
招商依山郡,120.500892,31.325972,19092
白马涧花园一区,120.50972959728,31.320460634757,12332
理想家园,120.540235,31.349293,16035
新港名墅花园,120.516186,31.365228,17969
新创悦山墅,120.515849,31.315195,16663
长成锦溪禾府,120.485635,31.342015,17752
北辰旭辉壹号院,120.497865,31.324281,24852
白马涧花园四区,120.50378068311,31.32261633837,14344
白马涧花园三区,120.50093174603,31.319223363356,18241
山河佳苑,120.517237,31.312464,16331
津西美墅馆,120.519186,31.315626,21507
景山玫瑰园,120.518144,31.317246,20948
新鹿花苑,120.49807942383,31.325280853243,9179
万科遇见山,120.479957,31.333672,24015
新沧花园,120.60139968252,31.299353440186,19965
银桥新村,120.60330568661,31.301368783095,21372
姑香新苑,120.595147,31.297215,24417
水韵新苑,120.585748,31.297936,22754
胥馨家园,120.61498912113,31.294716808247,21163
泰南路228号,120.611851,31.298721,19460
三香路411号,120.6014735631,31.3039781501,19615
嘉登大厦,120.597185,31.303641,9285
横塘东街45号,120.59247,31.280867,18728
万科金品家园西区,120.589888,31.296444,29889
奥体中心公寓,120.58586616955,31.296976296814,19870
盘胥路747号,120.617327,31.297038,15338
胥江路散盘,120.617065,31.296524,20477
劳动路110号,120.588598,31.297346,19890
益锦苑,120.592125,31.281678,18314
劳动路344号,120.610032,31.302758,15333
皇亭街小区,120.61693468561,31.30144792535,22390
阊胥路1号,120.61465,31.3027,22564
桐泾商务广场,120.608144,31.285086,13118
解放西路90号,120.602782,31.284324,16468
泰南路散盘,120.61094,31.298122,20986
枣市新村,120.612933,31.301397,14440
锦亭大厦,120.613805,31.305704,14691
三香苑,120.608549,31.302499,19842
通归桥弄51号,120.611928,31.302369,15785
三香花园,120.60458464299,31.302913882697,23445
三香福郡,120.59793,31.298493,24709
劳动路95号,120.596638,31.298179,19110
胥江路318号,120.609561,31.296282,19945
万盛花园,120.606232,31.303347,23228
彩虹一村,120.597469,31.301349,18676
柳家浜,120.604742,31.287328,19680
盘胥路739号,120.61696284619,31.297158184653,16674
锦绣新苑,120.59985691683,31.30001534289,22077
金桥新村,120.613885,31.294407,18005
三香广场,120.604471,31.304207,20801
冶金新村,120.614047,31.304817,15107
巴里新村,120.617475,31.292957,16607
广大家园,120.585366,31.294537,19169
友新新村,120.610892,31.28514,16994
奥林花园,120.587506,31.298383,23121
润达新村,120.61583520668,31.286482385015,19265
泰南苑,120.6122998628,31.298863261949,20216
华泰家园,120.609475,31.301149,22635
劳动路100号,120.593989,31.295442,20469
劳动路98号,120.613162,31.30516,20437
三香北王家庄60号,120.60333,31.302275,19432
康馨花园,120.602539,31.282766,37768
泰南路2号,120.615749,31.298553,17616
泰南路12号,120.613563,31.298588,16619
劳动路550号,120.606856,31.300146,18364
劳动路92号,120.597999,31.297251,18727
巴桥头新村,120.616414,31.293774,14708
苏福路40号,120.617325,31.287432,17500
盘景苑,120.61753163828,31.294501870653,25350
小施家弄22号,120.615826,31.305291,20604
向阳桥沿河,120.610077,31.297513,13078
三香路散盘,120.600945,31.304103,18442
彩虹新村（二区）,120.593363,31.3015,18172
景运家园,120.587367,31.295734,22323
小桥浜28号,120.614819,31.298156,20662
华亭大厦,120.61459,31.305522,8084
泰南路123号,120.614927,31.298437,19937
泰南路120号,120.614011,31.299587,19324
横塘东街55号,120.592259,31.280843,15466
铁链浜52号,120.616931,31.298245,18704
双虹路159号,120.597054,31.30291,17579
憩苑小区,120.606669,31.301229,19612
通归桥弄散盘,120.613015,31.305624,16967
体育新村,120.58902,31.300223,16900
劳动路散盘,120.603177,31.298854,19704
苏福公路13号,120.616949,31.287924,42859
枣市街114号,120.6108,31.300321,17353
桐馨苑,120.60347,31.291538,20475
东方苑（胥江）,120.611867,31.293791,19434
胥虹苑,120.605763,31.294152,22416
西环路128号,120.595902,31.285883,19018
城市恬园,120.618314,31.286056,21720
胥江华庭,120.605926,31.297519,27188
胥江路136号,120.61434346802,31.296934098114,17930
三香新村,120.60884180619,31.30455819947,17014
金塘新村,120.613912,31.292609,17710
象牙新村,120.59140222957,31.298499724485,17592
锦邻缘,120.61336,31.285755,22888
新港名仕花园,120.600274,31.304131,27414
解放新村,120.615856,31.290194,18246
潼泾新村,120.600694,31.301404,18026
姑香苑,120.596045,31.299367,19196
公园天下,120.605444,31.286075,24069
金帝名园,120.601273,31.284709,25537
彩虹新村,120.59459,31.301777,18504
云庭城市中心花园,120.591581,31.291759,22488
康馨公寓,118.88885861252,31.962313859624,16743
万科金品家园,120.589483,31.293729,28594
新康花园,120.603871,31.289743,21833
胥江新村,120.61144863761,31.296394630695,17327
梅亭苑,120.596158,31.280096,16658
汤城汇,119.06596153842,32.047258795901,20252
中海凤凰熙岸,120.592953,31.289718,29364
中海胥江府,120.601596,31.291444,27537
旺运花园,118.943902,31.93805,18961
上怡南苑,118.643496,31.905841,17207
汤山温泉公寓,119.070761,32.05775,10110
陶然经典,118.983343,31.870586,12395
梅清苑小区,118.648646,31.908816,22532
通安碧桂园,120.468117,31.378036,14622
华通花园六区,120.474846,31.388327,13869
龙景花苑三区,120.403659,31.338137,14666
华通花园三区,120.4792469682,31.384916829517,14583
中节能生态岛,120.398849,31.354497,17333
今创启园,120.547137,31.28322,26816
何山路121号,120.558981,31.311886,16024
御花园,120.558092,31.293742,44813
御庭国际公寓,120.556302,31.294908,30711
锦昌苑,120.57016,31.300065,30826
禧悦,120.573071,31.298492,31944
浒墅人家二区,120.498472,31.392003,15273
新地国际公寓,120.565741,31.296941,26734
永新金都城,120.513989,31.376963,5525
康佳花园三区,120.546692,31.319594,21316
康佳花园,120.547901,31.32182,18353
康佳花园一区,120.55121,31.320528,20347
新毛家花园,120.546701,31.316159,17992
枫秀苑,120.548619,31.322425,19163
康佳花园四区,120.54570204261,31.321989815216,18920
康佳花园二区,120.54888117577,31.320255192029,21867
金科王府二期,120.560926,31.316317,29308
蓝天广场,120.566603,31.324603,14711
河畔人家,120.5514573136,31.314687193468,18997
金科王府三期,120.565264,31.316687,40911
康佳花园五区,120.5421041793,31.321716347438,18647
马浜花园西区,120.561995,31.321372,19766
马浜花园南区,120.5657934733,31.319160051673,21628
马浜花园,120.56471178859,31.322488233973,21950
林枫苑,120.542946,31.316074,17471
东浜新苑北区,120.55698673399,31.320867190555,19833
姚桥新苑,120.554863,31.317942,23324
东浜新苑南区,120.55696368806,31.318291475664,19787
富康新村,120.54945,31.317308,17718
大地之歌,120.56057971368,31.320934705924,19736
佳林花苑,120.560625,31.318608,17243
张步新村,120.560229,31.317231,22001
金科王府一期,120.566724,31.316837,31740
新区港龙城市商业广场,120.553504,31.318701,15188
阳山花苑二区,120.50007,31.377723,14404
惠丰花园北区,120.52418602408,31.380835473549,11726
阳山花苑三区,120.49895,31.380398,14798
苏高新天之运,120.566814,31.327295,20328
名佳花园,120.502729,31.373083,19013
新浒花园二区,120.53434200476,31.380946579454,15578
阳山花苑四区,120.494079,31.376405,14962
阳山花苑五区,120.49177,31.37817,11133
阳山花苑一区,120.504607,31.374864,13018
金榈湾东区,120.534341,31.389574,17976
金榈湾丹景廷,120.531844,31.390844,18508
旭辉玺悦,120.509846,31.375574,18786
浒墅人家,120.49795,31.388374,16192
新浒花园三区,120.53116502709,31.385222543563,16167
阳山花苑六区,120.486261,31.378657,13356
星榈湾,120.527378,31.386878,15763
惠丰花园,120.523975,31.378047,13009
中吴红玺御园,120.533002,31.391009,18920
新浒花园一区,120.53755596813,31.381685269056,16667
惠丰花园二区,120.52723520075,31.377155930249,17246
旭辉悦庭,120.508427,31.376699,19393
浒墅人家三区,120.495655,31.390856,14888
金辉浅湾雅苑,120.519581,31.378771,17879
金榈湾西区,120.52975,31.388474,17303
旭辉苹果乐园,120.532193,31.392335,17865
文昌花园,120.512071,31.374223,18011
津西新天地,120.559252,31.312734,22464
水语金成花园,120.532501,31.372726,20985
玉山苑,120.568881,31.294871,30284
滨河花苑一期,120.571388,31.306061,27914
运河公馆,120.529422,31.372088,20434
嘉业阳光假日三期,120.53719539482,31.2879808503,20256
嘉业阳光假日五期,120.53769427232,31.28674808866,23017
狮山峰汇,120.571723,31.299112,19465
龙湖狮山天街生活广场一期,120.559724,31.30019,28732
嘉业阳光假日四期,120.54058162705,31.286056369261,22217
新狮新苑西区,120.544806,31.312804,15551
新狮新苑东区,120.546761,31.312523,16927
运盛美之苑,120.563275,31.307952,27832
龙湖狮山原著,120.546188,31.290866,45043
嘉多利花园,120.564128,31.297284,22065
灏景天下,120.55087,31.286881,22601
锦华苑,120.571872,31.301585,28987
路劲香港时光,120.551462,31.279802,34206
锦宁阁,120.569546,31.304113,32643
金龙花园,120.573857,31.296034,19910
万枫家园,120.540795,31.281446,18070
星韵花园一期,120.576647,31.284818,19830
吴宫丽都,120.563743,31.298207,27336
狮山花苑,120.567223,31.300555,32822
君地风华,120.556699,31.284663,25238
智园别墅,120.571395,31.315218,42439
润捷广场,120.574548,31.306548,10020
名都花园,120.562224,31.311269,26629
招商学府1872,120.567012,31.287896,36117
银枫大厦,120.55139,31.311837,14431
青成大厦,120.552544,31.311427,12862
乐嘉汇商务广场,120.576754,31.30317,16899
何山路散盘,120.558407,31.314332,18187
祥华苑别墅,120.549778,31.311693,23189
何山花园北区,120.570188,31.309642,28102
建鑫大厦,120.552953,31.312977,21014
赛格又一城,120.581021,31.288945,15130
御花园温莎园,120.55872,31.293325,36225
万道尊品,120.564852,31.290365,33261
新创玉山广场,120.570964,31.293797,35562
人民银行家属楼,120.573758,31.299405,29731
滨河花苑三期北区,120.565283,31.306668,25373
南山柠檬花园柠府,120.533251,31.372079,20288
供电新村,120.56722,31.297716,24000
秀水苑,120.557944,31.292054,26943
名尚花园,120.565889,31.295834,38354
姑苏公馆,120.579346,31.295622,34755
农业局宿舍,120.576635,31.299862,23876
白领生活馆,120.55456941129,31.28480526302,25470
青庭国际公寓,120.5657,31.29843,21685
华夏五金机电城,120.558066,31.277185,9529
金地名悦,120.53434,31.31214,23278
枫舟苑,120.55693802848,31.313766569689,21296
狮山峰尚,120.571899,31.298577,30997
苏州科技学院教师住宅,120.569968,31.311643,19409
雅阁花园,120.567191,31.297288,35304
金枫苑,120.572145,31.311728,21209
枫津新村,120.554885,31.310405,21402
滨河花苑三期,120.56658,31.305615,27274
佳兆业广场,120.565727,31.28528,30966
怡馨花园,120.55108,31.313008,22983
百合花公寓,120.562215,31.298079,26048
玉华花园,120.570403,31.295214,26437
狮山丽舍,120.569001,31.298738,31994
御花园玫瑰园,120.559202,31.294184,31930
龙湖狮山天街生活广场三期,120.562786,31.299391,40328
金屋山庄,120.581012,31.280646,21298
水岸秀墅,120.593655,31.263884,29215
彩云花园,120.586558,31.27953,17246
汇金新地,120.582993,31.258482,13192
星韵花园二期,120.575443,31.283294,22052
石湖花园,120.586496,31.273144,14292
湖畔翠庭,120.586867,31.263064,19062
星韵花园三期,120.578385,31.283765,18899
学府花苑,120.587044,31.265481,16861
锦悦湾雅园,120.583141,31.282383,26722
美田山水之恋,120.58072552832,31.281859752314,19134
湖畔佳苑,120.590853,31.262564,23401
山水映象,120.584992,31.261535,19880
新创宝带熙岸,120.578137,31.263,20090
仁恒棠悦湾,120.584067,31.284148,32685
龙景花苑一区,120.403718,31.335754,12101
和乐家园,120.571432,31.304642,31164
龙景花苑四区,120.400398,31.33814,12188
龙景花苑五区,120.393953,31.335237,11433
新创竹园,120.553869,31.282487,16335
时代花园,120.56275234739,31.313970011919,25261
锦丽苑,120.572061,31.302917,34053
保利雅苑,120.57303758444,31.294859689972,31571
狮山御园,120.548485,31.302129,36741
金色家园,120.540014,31.290712,18237
沁怡家园,120.578187,31.296945,30594
新港名城花园,120.561245,31.29649,35461
挹翠华庭,120.573143,31.301172,25439
汇豪·狮山路58号,120.573632,31.300431,35131
金河国际华庭,120.576668,31.298711,29250
恒达清水园,120.55925,31.310686,23893
滨河花苑二期,120.568494,31.305692,22573
名馨花园,120.564595,31.289365,25520
中梁香缇,120.578712,31.288432,27441
世纪花园（高新）,120.549467,31.287609,17410
狮山新苑,120.566985,31.302931,39427
今日家园,120.569424,31.315083,26604
中旅狮山名门,120.560382,31.306583,33750
嘉业阳光假日一二期,120.540409,31.288205,20375
何山花园南区,120.569007,31.30726,25968
狮山丽晶,120.569164,31.299091,13672
新升新苑,120.54662,31.287178,20574
馨泰花苑,120.562403,31.289315,20807
天都花园,120.552934,31.286536,28713
格林花园,120.559816,31.308338,24531
山水华庭,120.56324919959,31.275127323584,20185
荷澜庭,120.553339,31.306355,43961
正荣悦岚山,120.483618,31.390456,19078
中铁诺德誉园,120.479562,31.387757,15502
荣华花苑,120.483442,31.386254,14583
荣尚花苑,120.467174,31.383688,15872
华通花园一区,120.48903,31.384497,14300
华通花园四区,120.47306764586,31.380184818853,11773
华通花园二区,120.48020730142,31.38190951909,11742
万安盛世年华二期,114.421027,30.702471,12430
立德绿筑空间,120.44756,31.339926,11443
精英公馆,114.398111,30.72781,7193
清山慧谷,120.429832,31.335901,40253
中航樾玺,120.440296,31.351167,19649
望湖湾,120.443594,31.34048,24496
Max未来城,120.430424,31.351483,21831
幸福未来花园,120.430076,31.351893,25709
青山绿庭一区,120.42878,31.339774,20404
朗诗绿洲天屿,120.424067,31.350648,36458
永新秀郡,120.438644,31.353071,26076
万科翠逸花园,120.424195,31.348122,26363
青山绿庭二区,120.427837,31.336039,15324
龙惠花苑,120.416905,31.346564,15141
中航樾公馆,120.44106,31.349051,23622
虹锦湾,120.419294,31.344976,18234
水秀苑,120.432553,31.346818,23871
山湖湾,120.446926,31.351425,21681
招商雍和苑,120.428007,31.345299,29443
汉北家园,114.325321,30.698859,10878
东北街,120.641105,31.329814,17133
南环花苑,120.639774,31.290372,23968
水岸年华,120.429984,31.346194,18686
颜家巷散盘,120.634566,31.315442,46369
西园路50号,120.578604,31.321094,15081
江枫别墅,120.575621,31.318565,60272
春馨园D区,120.567094,31.3345,13678
西园路散盘,120.582403,31.320948,16893
倪家桥,120.58529171136,31.324108226948,16332
春馨园B区,120.568603,31.335051,16857
闻钟苑二区,120.576913,31.321244,19154
北五泾浜20号,120.601414,31.327662,15753
杨安弄,120.602864,31.325014,30476
三茅场,120.603783,31.324279,15337
北浩弄48号,120.610657,31.325841,18900
冰厂街散盘,120.608293,31.331424,16226
旺思泾浜27号,120.605922,31.331615,17132
西杨安浜1-2号,120.607286,31.323485,18399
庙堂巷小区,120.62124,31.309389,18589
南环东路27号,120.640781,31.285789,20491
柳巷35号,120.624148,31.309718,25493
润发公寓,120.647941,31.299005,25827
惠康公寓房,120.632459,31.283772,18000
新桥巷,120.621282,31.300505,21010
紫藤园,120.629151,31.299389,21276
内马路9-4号院,120.642308,31.290678,18372
司前街散盘,120.624371,31.305034,20798
盘门清河浜7号,120.623934,31.29064,19248
苏纶新村,120.621916,31.297882,18701
道前街地方弄散盘,120.625893,31.304182,20248
内马路8号,120.637763,31.290543,17220
内马路散盘,120.63896,31.29097,18105
天河花园,120.619237,31.310691,20000
盘溪新村上沙苑,120.623075,31.28643,18090
东支家巷散盘,120.622465,31.30809,18151
书院巷128号,120.625192,31.303293,18534
大石头巷38号,120.626235,31.310282,16021
国涛商务大厦,120.625941,31.311728,13034
小教场4号,120.623868,31.303945,35714
苏晶新村,120.632072,31.297396,19531
东采莲巷散盘,120.62542,31.30539,14990
瓣莲巷42号,120.620647,31.308463,31841
南园南路297号,120.643364,31.292321,16428
南园南路18号待删,120.644329,31.290009,12770
花街巷,120.624757,31.310476,24958
南环东路898号,120.635244,31.286901,21467
华侨公寓,120.637982,31.290504,23347
大新巷8号,120.631649,31.320686,21403
日规路1号,120.65252087403,31.328025301726,15993
娄门下塘14-1号,120.650079,31.33003,16449
永林北区,120.64988,31.329439,15999
冯家村60号,120.651457,31.329358,20973
梧桐花园,120.647895,31.334859,24322
朗园,120.650725,31.324426,31044
娄门下塘散盘,120.649346,31.330279,16676
普福寺弄散盘,120.64142,31.330544,18345
东北街后门118号,120.641939,31.330129,16618
小唐家巷,120.644517,31.330816,19734
娄门新村,120.64572,31.329127,16342
东环路254号,120.650361,31.333965,17814
东城明月,120.652885,31.329118,20565
永林二区,120.64927731253,31.325048106109,20024
嘉吴苑,120.65063185317,31.327628845455,21024
东环新村,120.65341475681,31.325234908317,20406
永林新村,120.648662,31.326556,18757
长风新村,120.651296,31.326131,18431
娄江新村,120.648601,31.3319,19637
塘坊苑,120.648253,31.333939,18723
南环西路26号,120.62537226159,31.285463659186,17733
瓣莲巷散盘,120.622588,31.308139,32492
南环西路24号,120.626201,31.285477,16942
邱家桥70号,120.622766,31.283572,18728
南环汇邻广场,120.642634,31.288634,17965
南环东路9号,120.646034,31.287697,20893
师古桥,120.624395,31.301446,17706
盘南公寓,120.619568,31.287025,16250
南显子巷散盘,120.637341,31.31891,24167
惠康新地,120.632471,31.283892,16238
东善长巷散盘,120.62511,31.30652,21859
后芳弄散盘,120.641244,31.327127,20763
悬桥巷散盘,120.639497,31.320888,39245
仓街散盘,120.644514,31.31739,33276
石板街9号,120.643837,31.329084,23525
顾家花园散盘,120.639967,31.320049,20947
现代美墅,120.596495,31.339429,34250
观景二村,120.583115,31.334314,20769
虎阜花园西区,120.596004,31.335677,18148
虎阜花园东区,120.599009,31.336008,16068
金阊大厦,120.612116,31.311955,18986
南环西路2015号,120.61641,31.283626,18420
南环西路601号,120.61848,31.284069,14597
承信小区,120.610814,31.282268,18068
南环西路2039号,120.616728,31.283642,24599
名鎏公馆,120.604198,31.270831,18385
长欣苑南区,120.613761,31.279513,20618
四季商业广场,120.602443,31.275136,11235
友新路425号,120.611002,31.282065,17876
长欣苑,120.614058,31.280785,20049
水香六村,120.619507,31.281083,19266
苏公馆,120.606568,31.277451,30885
福星小区,120.605424,31.281238,19552
城西教师新村,120.608675,31.274062,23823
苏州世茂广场,120.604809,31.267623,14626
官庄前花园,120.607,31.264146,23221
世茂运河城苏和苑,120.599901,31.276382,26252
福星新城,120.608693,31.276809,26561
友联二村,120.611615,31.280473,18137
世茂运河城和茂苑二期,120.599975,31.271813,27307
世茂运河城世家苑,120.59898,31.275264,27824
世茂运河城尚运苑,120.600106,31.269595,27948
锦沧名苑,120.606901,31.272634,27531
天辰花园,120.613305,31.276193,27897
世茂运河城和茂苑一期,120.6022408946,31.272945774327,26828
友联一村,120.616845,31.281294,17907
新风巷78号,120.607864,31.320092,23734
彩香路10号,120.600066,31.312677,18801
世茂运河城瀚河苑,120.609285,31.26707,27318
新风巷79号,120.607892,31.319858,24898
上塘街37号,120.607987,31.320446,12852
干将西路500号小区,120.610254,31.310983,20743
彩香路4号,120.601018,31.311382,25554
汇通大厦,120.599196,31.312095,15111
香雪海路2号,120.597558,31.314298,17900
朱家庄新村,120.598794,31.315997,23215
金石街8号,120.607315,31.318428,20315
胡家浜,120.600622,31.313,18718
彩香一村五区,120.599319,31.312429,18134
彩香一村四区,120.60219,31.311412,22197
赛风公寓,120.610091,31.319951,10820
南浩花园,120.610579,31.317894,27323
谈家巷散盘,120.609502,31.311682,15094
石路中心广场,120.609615,31.318725,9949
时代晶华,120.608693,31.317369,11599
蔡汇河头13号,120.634929,31.316309,31766
九九玄妙,120.632935,31.314768,15161
馨泓花园B区,120.58921,31.31309,20318
富仁坊65号,120.629772,31.314145,20429
虹桥路12号,120.593925,31.310089,19838
新南环新村二组团,120.640394,31.288893,20707
南门新村,120.632644,31.2982,18364
金门路778号,120.594608,31.315368,17832
新南环新村五组团,120.643005,31.287653,21470
乐将武桥散盘,120.59755,31.32714,15192
玻纤路新村,120.599391,31.327892,15743
人民路819号,120.629097,31.307929,22500
北五泾浜散盘,120.601087,31.327622,15437
小教里5号,120.628995,31.30645,22187
潘环巷,120.627495,31.300765,15217
泰富苑,120.62591,31.311116,27083
人民路五号,120.632929,31.294555,25665
东大街散盘,120.626192,31.294924,20308
高家村,120.537719,31.196463,26548
南园南路189号,120.643647,31.290041,19786
中军新村,120.625892,31.301983,15466
南园南路25号,120.643552,31.28925,22921
乐怡苑,120.626821,31.311357,32636
南门世家,120.637174,31.292717,29647
南环西路27号,120.626314,31.283337,17227
金狮小区,120.626462,31.303895,19690
新市路散盘,120.62882,31.297103,16751
华侨花苑,120.633976,31.288015,25102
西美巷散盘,120.625243,31.309588,25987
朱家园,120.622473,31.304265,22475
吉庆街88号,120.620556,31.301126,31857
南园花苑,120.645182,31.292486,23620
东大街12号院,120.626012,31.299047,22925
盘门雅苑,120.620444,31.28757,20835
新翠园新村,120.647105,31.293222,23349
伍子胥弄小区,120.620411,31.304697,25396
瑞富广场公寓,120.631563,31.297611,10343
书院巷135号,120.62540070643,31.303302755635,28092
富郎中巷散盘,120.621772,31.310618,18300
内马路9-7号院,120.642469,31.289904,18294
东二路小区,120.635041,31.29651,21823
盘门路散盘,120.622446,31.291307,14965
南新村,120.634778,31.297053,18631
五十六间,120.626578,31.290707,17969
桂花公寓,120.643216,31.296598,28624
大竹园,120.629377,31.289138,25610
盛家浜散盘,120.620693,31.309592,31957
金狮巷2号,120.628623,31.306147,19703
南门路49-1号,120.645236,31.29379,21864
南环西路28号,120.623441,31.285633,18154
南环一村,120.635975,31.284493,19825
南星花园,120.622127,31.282908,20222
南采莲巷2号,120.624759,31.305144,19245
南园公寓,120.641298,31.290512,26819
泰华苑,120.628693,31.295786,23478
竹辉路散盘,120.645254,31.29929,30598
城中花园,120.624976,31.311154,36875
盘门新村,120.623048,31.290866,17594
南园南路34号,120.644581,31.287337,20211
西善长巷散盘,120.621381,31.306112,28108
南环西路23号,120.627014,31.284042,20488
吴县新村,120.624367,31.300026,22297
明日家园,120.623758,31.283352,20991
学士林,120.617855,31.308982,30414
南园南路散盘,120.644392,31.28751,24731
画锦坊,120.620946,31.29674,22931
盘福苑,120.619833,31.291303,21027
人民路131号,120.632099,31.288149,35467
冠云花园,120.58952215978,31.327809127783,18839
广济公寓,120.610782,31.33112,19656
殳家墙门,120.606389,31.326446,16391
清塘路158号,120.606558,31.332216,20000
中倪家场,120.60418,31.328605,15911
西杨安浜,120.606707,31.323288,19362
和园小筑,120.58715,31.327473,23226
闻钟苑三区,120.577831,31.322212,17870
东吴苑,120.592703,31.327626,19758
缘园小区,120.587298,31.323065,19941
石家弄4号,120.609607,31.322509,9380
猪行河头,120.601269,31.328868,13421
南五泾浜18号,120.601307,31.326828,19193
山塘街散盘,120.608065,31.324532,14844
清洁路散盘,120.60757981555,31.332468936196,19255
山塘街364号,120.604859,31.327497,19954
北浩弄60号,120.610415,31.327043,17865
广济路235号,120.608119,31.327111,17974
春馨园C区,120.567425,31.334177,14122
油车里3号,120.598551,31.329674,15682
潭子里散盘,120.606387,31.325206,17544
广济路238号,120.609159,31.326503,18147
油车弄11号,120.598214,31.330279,15844
航西新村,120.600742,31.325304,15194
东环路1199号,120.657381,31.313162,19330
相门后庄10号,120.649908,31.315188,17747
十梓街3号,120.64583,31.30928,33333
葑门路18号,120.655307,31.306523,22612
庄先湾散盘,120.651359,31.309859,21927
东环路1165号,120.656996,31.312632,19579
永德里,120.651938,31.306051,24303
相门后庄80号,120.65216682042,31.313362877119,29835
莫邪路778号,120.651732,31.310757,23017
葑红百货宿舍,120.652979,31.31305,18091
蚕桑地,120.654723,31.307941,27675
葑门路108号,120.656527,31.306807,22465
水景丽舍,120.651426,31.311266,27126
联相园,120.653357,31.313657,21550
相门后庄4号,120.65112475908,31.312794572846,21756
庄先湾6号,120.650865,31.308801,22814
万科长风别墅,120.654895,31.315867,40166
锦书清华里,120.654031,31.314485,33380
相门后庄12号,120.651696,31.312322,22865
宏葑新村,120.655212,31.312591,19537
相门新村,120.65384006477,31.318936402358,23286
新湘苑,120.64842173916,31.321641569588,22653
新庄西路26号,120.573265,31.324065,13098
朗诗相门绿郡,120.650557,31.315616,42387
苏大北小区,120.649898,31.321174,24153
仁安街1号,120.599913,31.323328,14344
前小邾弄散盘,120.608706,31.322901,12051
世家留园,120.601386,31.322229,39694
西园路9号,120.587129,31.323664,16322
福马小区,120.57988,31.320022,14125
闻钟苑一区,120.57655,31.320648,17639
丽景花苑,120.574207,31.325142,23539
新庄西路18号,120.576286,31.324756,16152
东花桥巷散盘,120.636936,31.323352,27273
白塔东路散盘,120.639384,31.324913,18946
木耳场,120.608381,31.33019,16843
卫道观前散盘,120.642262,31.319678,57732
建新巷散盘,120.63933,31.315592,35211
大儒巷散盘,120.639744,31.318455,22651
东舟公寓,120.643808,31.315678,32580
天宫寺弄10号小区,120.635737,31.321722,18596
东园小区（姑苏）,120.643327,31.326281,27350
平江花园,120.640699,31.315539,31855
棋杆弄16号,120.640551,31.324576,41810
中家桥巷散盘,120.641846,31.323144,16926
富乡小区,120.642573,31.317435,29156
新学前学地,120.64318,31.317028,28077
蕴秀别苑,120.643472,31.318302,37735
钮家巷,120.638388,31.31551,25000
邾长巷散盘,120.642743,31.318148,32579
兰亭苑,120.636635,31.323011,30409
华阳花苑,120.639595,31.328769,24648
蕴秀园,120.643589,31.316017,44582
楚春巷散盘,120.635912,31.320651,20180
南门一村,120.630923,31.287304,28409
丽景苑,120.639042,31.314547,28755
西二路散盘,120.627171,31.295759,17466
南环新村,120.635986,31.288873,22320
南门城根,120.630338,31.294395,24541
苏纶里,120.627865,31.288996,29474
人民路222号,120.6344717811,31.290022927882,19520
南门世纪花园,120.638603,31.295079,24393
新南环新村三组团,120.638702,31.287267,20417
南华公寓,120.641409,31.285145,18275
南环西路21号,120.62789,31.28491,17153
翠园新村,120.644221,31.291028,25052
朗诗南门绿郡,120.629179,31.289759,42932
水城丽都,120.631322,31.284366,25806
新养蚕里新村,120.638356,31.296781,32126
佳安别院,120.626664,31.303309,29394
化工新村,120.629615,31.294951,31417
新南环新村一组团,120.638516,31.288492,21670
新南环新村四组团,120.640573,31.287304,20699
竹辉新村,120.633278,31.298029,20427
大龙港新村,120.627432,31.286314,18361
养蚕里新村,120.636321,31.296714,27117
玉兰新村,120.642536,31.296668,28355
南园新村小区,120.627616,31.297658,22701
领秀江南,120.64062,31.292182,32055
盘溪新村,120.62259,31.287217,17329
桂花新村,120.646288,31.297728,36834
鼎泰花园,120.637039,31.285647,24538
南浩街25号,120.614712,31.310742,18750
三香弄,120.610013,31.306631,22917
银泰花园二期,120.590454,31.309033,22628
络香路3号,120.586911,31.304507,20424
金门路692号,120.59567,31.315217,18932
阊胥路102号,120.615419,31.307385,22457
佳福国际大厦,120.611087,31.310247,14383
虹桥路8号,120.595114,31.310669,20500
后文家巷11号,120.59424,31.316056,22509
新元二村,120.5833,31.314718,21137
张家浜,120.594779,31.311933,18881
桐泾北路25号,120.596553,31.310849,18546
欣嘉园,120.58711638932,31.307569349683,23109
虹桥路6号,120.5956,31.310752,29412
金门路386号,120.588149,31.314666,16538
东沁苑,120.595016,31.316398,22215
老禾家塘63号,120.608164,31.306221,16219
雪枫公寓二期,120.583595,31.317638,7446
施家弄16号,120.596654,31.31522,16663
三香弄八号小区,120.608065,31.3068,21296
苏州机电五金城,120.566908,31.35384,9404
白莲花园,120.587999,31.309161,43967
南浩街5号,120.615349,31.308384,18712
富强新苑一区,120.554148,31.366731,14746
富强新苑二区,120.55178424478,31.366735155796,16621
藕巷新村,120.55122466086,31.371115964706,21419
新东方汽配城,120.567389,31.355646,5909
宝邻苑,120.552374,31.376432,18942
和泰家园,120.569563,31.348029,19304
领秀金品花苑,120.576666,31.353963,15908
金筑家园,120.548983,31.365532,18193
和美家园,120.547477,31.363026,15483
虎池苑,120.565772,31.34641,17707
南山金城1958,120.55937263998,31.364644731606,22772
莲花新村（姑苏）,120.598295,31.327939,16809
宝祥苑,120.54799,31.370188,16428
新庄二村,120.57506391869,31.323537476758,18723
姑苏人家,120.600716,31.320744,40000
桐邨,120.594141,31.327507,25644
星光耀花园,120.553307,31.36128,19984
万科金色里程,120.550205,31.372597,20923
枫江居,120.597648,31.329065,22254
留园路散盘,120.604421,31.320758,21827
北浩弄散盘,120.610145,31.326706,17051
中海御景湾,120.552292,31.378453,18569
路南苑,120.57144,31.334937,17557
御庭苑,120.58631,31.322226,23729
中天品苑东区,120.58488,31.320713,26807
半边街,120.599523,31.322955,16754
小木梳巷散盘,120.610229,31.321734,22219
倪家苑,120.584439,31.322811,20427
中天品苑西区,120.583311,31.32,29978
渡僧桥下塘散盘,120.609318,31.321092,17739
长盛花园,120.603367,31.331699,19580
留茗花苑,120.605217,31.320593,22940
虎丘路新村,120.592524,31.325274,16763
前管弄堂小区,120.608908,31.329037,10575
观景新村,120.584282,31.329416,16884
仁安街新村,120.599392,31.325024,15895
桐仁花园,120.595986,31.327348,21345
新庄新村,120.58252020208,31.324178875528,16028
玖园,120.589762,31.329701,23795
恒润新新家园,120.578757,31.323983,24415
莲花新村二期（姑苏）,120.5968172969,31.329060768989,18877
春馨园A区,120.568882,31.334932,15826
清塘新村,120.60435,31.330356,17146
烽火路80号,120.605424,31.307984,21250
嘉业阳光城,120.575564,31.327657,19618
日晖苑,120.614656,31.308839,25000
鑫苑景园,120.58045,31.329523,21262
新元路20号,120.584035,31.314355,19901
小日晖桥11号,120.614537,31.308365,23022
南许巷18号,120.595442,31.314732,30612
红旗小区,120.613508,31.306745,17755
宝城小区,120.61283,31.309364,12877
干将名邸,120.589133,31.31103,27572
新元路11号,120.583828,31.316382,16308
机械新村,120.588054,31.315495,18252
新元新村,120.579535,31.313876,19340
干将西路1301号,120.588086,31.307944,21073
银杏苑,120.591032,31.312584,21562
南浩街19号院,120.615067,31.309017,17443
银泰花园一期,120.591572,31.309121,18661
采香花园,120.594051,31.307431,22852
金之枫花园,120.590727,31.316799,21825
寒舍,120.578452,31.316567,26926
金都名苑,120.591177,31.310825,25718
菱塘新村二区,120.60775,31.308068,20573
三元四村,120.58165693168,31.307299656429,20705
彩香一村二区,120.59984470168,31.308631334325,18185
富达大厦,120.611876,31.310281,13672
菱塘新村一期,120.606663,31.309059,18740
彩香一村一区,120.600707,31.306371,17947
建瑞广场,120.614182,31.307906,11367
三元一村,120.586357,31.305353,18707
三元三村,120.57949795433,31.310577099626,18726
彩香一村三区,120.602993,31.308912,18508
姑苏金茂府,120.594855,31.313606,35975
三元二村,120.585216,31.311126,19028
宝石御景园,120.611501,31.309322,27268
彩香二村,120.596759,31.306521,19200
松筠里散盘,120.629766,31.323181,18205
白塔西路散盘,120.628762,31.323474,39011
乔司空巷,120.628168,31.318438,22191
大新新村,120.632085,31.321175,14646
史家巷,120.632651,31.321958,20343
众善桥弄散盘,120.63444595122,31.321997009625,17984
观前1号,120.635387,31.318917,22416
锦地星座,120.629076,31.314003,15730
洪元弄散盘,120.628379,31.322787,17263
润亿皇朝,120.62892664808,31.318786998308,17290
粤海广场,120.63023,31.319135,24081
干将东路散盘,120.634714,31.31391,20843
二八八社区,114.319998,30.703013,11994
南林苑南平巷5号,120.634425,31.305403,29972
醋库巷散盘,120.637377,31.307036,29444
望星桥北堍,120.643819,31.309173,23088
北园路19号,120.633952,31.334145,18502
齐门下塘,120.63183,31.331448,21018
北园路散盘,120.634564,31.333923,21299
人民路568号,120.631596,31.300013,22683
南谭子里小区,120.631667,31.32742,24839
水仙弄小区,120.638227,31.305986,37500
新天地家园南区,120.607301,31.336136,20512
东汇路187号,120.635851,31.337038,19497
江星商业广场,120.603479,31.346018,11111
羽绒新村,120.644329,31.343394,20500
汇元坊,120.637031,31.337921,19046
虹桥头散盘,120.635559,31.337007,18008
东汇路65号,120.637682,31.337493,18321
城市生活广场,120.614919,31.348948,13836
梅花新苑,120.633159,31.344022,19724
翠园雅筑,120.60308649314,31.339289403854,19738
梅林新苑,120.632206,31.344112,19503
当代万国府MOMΛ,120.625613,31.339077,37261
梅花三村,120.637178,31.345184,17026
梅花二村,120.63466455862,31.344257269917,17630
惠宇华庭,120.636951,31.351466,19585
双悦大厦,120.60333,31.349868,14531
银都商业广场,120.607334,31.34699,10274
天筑家园南区,120.603649,31.341082,22978
华恒家园,120.606016,31.348118,21156
喜临门商业广场,120.618768,31.33954,18760
挹秀新村,120.643175,31.338164,19037
梅花新村,120.638827,31.344047,19739
他她公馆,120.601673,31.346441,14957
苏江花园,120.607131,31.349973,20111
官渎花园,120.643499,31.343141,17929
苏锦二村南区,120.61069033176,31.341626332587,21578
朱牙场散盘,120.627769,31.328564,16520
东蒋家场,120.639812,31.334309,17308
善耕里,120.630999,31.326235,28047
南潭子里6号,120.630985,31.327701,21111
平门二村,120.623838,31.33304,19388
平齐路散盘,120.628966,31.334133,15679
谢衙前散盘,120.631858,31.325616,21903
仲雅苑南区,120.60822642787,31.347845039174,22770
苏锦二村北区,120.609479,31.344205,20543
苏锦一村,120.613185,31.342378,19411
中锐府上,120.630028,31.340897,28877
大观花园,120.599899,31.339324,26235
新天地家园北区,120.60581145243,31.337750344873,16445
苏尚新地,120.622609,31.345418,11288
中梁天御一区,120.628476,31.346932,29466
宝隆广场,120.612538,31.346976,13249
天筑家园北区,120.604597,31.343249,22329
大观花园北区,120.599301,31.342227,25116
水岸家园,120.612975,31.344863,23026
嘉裕花园,120.64043,31.341375,20385
仲雅苑北区,120.60658578952,31.351334364083,24187
橘郡花园,120.616216,31.344112,28367
汇翠花园,120.59882339523,31.348510375705,16848
鼎尚花园,120.634546,31.339972,20116
橘子国花园,120.607206,31.344173,24336
中梁天御二区,120.626323,31.345415,26108
家悦花园,120.602629,31.350642,22430
阳光美地花园,120.59941017381,31.350971891533,22106
锦荷苑,120.627378,31.343202,22851
中锐姑苏尚城,120.624953,31.340685,30641
和润家园,120.624669,31.352165,21224
中梁天御三区,120.627388,31.346877,29020
皇废基,120.6313,31.310241,23200
齐门人家,120.634235,31.341723,19983
平江怡景花园,120.625692,31.342204,30551
万科金域平江,120.624054,31.349771,33664
万达广场,120.620669,31.349154,21595
定慧寺巷64号,120.640952,31.313102,31892
元和路散盘,120.637139,31.312312,23348
观音弄2号,120.639497,31.309165,27421
迎枫苑,120.643058,31.308088,28843
通关坊,120.629805,31.310207,19919
沈衙弄,120.638364,31.308735,29615
甲辰巷,120.645126,31.314324,33421
苏医新村三区,120.635327,31.29997,29000
八宝街20号,120.640293,31.311573,27406
张家弄散盘,120.641392,31.311047,25455
竹辉路100号,120.640354,31.300617,33526
观音弄,120.639343,31.309491,30281
叶家弄,120.642775,31.309549,22159
公园路158号,120.635508,31.310388,24068
凤凰街30号,120.639405,31.305679,34446
迎枫桥弄散盘,120.64321545844,31.305781141671,39055
定慧寺巷36号,120.640997,31.312311,29010
苏医新村二区,120.634892,31.30096,27543
嘉园,120.643242,31.303062,31831
唐家巷41号,120.643876,31.314027,26593
一人弄小区,120.635005,31.30226,23830
百步街1号,120.647213,31.305765,33333
福园小区,120.649202,31.301369,38140
南林苑南平巷8号,120.633977,31.306017,29456
南石皮弄20号,120.641334,31.302052,30795
彭义里散盘,120.64682,31.304247,27731
竹辉路99号,120.63957632311,31.300927855628,35811
吏舍弄小区,120.633456,31.305524,25525
羊王庙18号,120.634857,31.302939,20059
相王路25号,120.648004,31.299928,27222
泗井巷散盘,120.633239,31.306795,25231
木杏桥散盘,120.639031,31.299343,30000
十全小区,120.643105,31.304702,36923
祖家桥10号,120.642358,31.31181,27853
十梓街散盘,120.634924,31.30795,28320
升隆桥下塘24号,120.64211,31.306193,20755
吴衙场散盘,120.647089,31.305427,39241
市桥南散盘,120.645398,31.313206,22498
带城桥弄47号,120.640915,31.302279,30115
善家巷小区,120.639226,31.307744,34741
钟楼头,120.643862,31.311575,24242
网师巷4号,120.64136,31.30415,30167
凤凰街102号,120.639411,31.307289,36828
东小桥下塘7号,120.640879,31.307908,34924
十梓街29号,120.64441,31.308563,72055
百狮子桥散盘,120.64361,31.310783,28571
燕家巷18号,120.633675,31.303316,25301
凤凰街散盘,120.638793,31.312094,24784
九如巷2号,120.635254,31.308219,28333
相王路社区,120.647033,31.302959,24704
十全街散盘,120.650195,31.30445,25610
唐家巷42号,120.641513,31.313872,33799
苏泉苑,120.635714,31.304057,45455
南林苑进士巷散盘,120.634322,31.305192,33394
大树头8号,120.639794,31.303299,34711
网师巷2号,120.64128,31.304646,29550
西沙河塘30号,120.627477,31.330551,19340
大王家巷,120.627935,31.325668,18859
北大弄21号,120.631336,31.332579,16263
平门一村,120.624898,31.330372,18604
远香居,120.633033,31.333946,28826
蒋庙前散盘,120.632862,31.327426,34091
打线里,120.629615,31.325406,25000
人民路2162号,120.62365,31.332284,20769
拙政别墅,120.637618,31.332484,68189
石桥里小区,120.632,31.324502,43625
敬文里小区,120.628088,31.326268,27070
石皮里9号,120.631834,31.330986,17073
平齐花苑,120.630863,31.33388,25356
园林里,120.637531,31.32748,27624
北园新村,120.641041,31.33223,17705
人民路220号,120.623852,31.332049,18185
政园小区,120.639219,31.333608,21720
西北街散盘,120.631289,31.328155,27414
齐门新村,120.630676,31.333171,16344
财神里小区,120.629201,31.323909,15414
阊门内下塘,120.632327,31.324241,21277
狮林苑,120.637758,31.325375,42480
竹之苑,120.632238,31.328413,34035
带城桥下塘散盘,120.642568,31.305368,24615
唐家巷散盘,120.642425,31.313815,21840
甫桥下塘,120.637703,31.311214,32946
船舫巷,120.638368,31.304284,31875
花桥弄小区,120.632723,31.30661,28947
桐芳苑,120.63591,31.325026,29687
相王路49号,120.646061,31.300676,30588
华润平门府,120.625961,31.333076,36767
带城桥下塘14号,120.642213,31.305685,26539
马军弄,120.636449,31.306583,23791
彭义里36号,120.64737,31.303723,26400
长洲路小区,120.631937,31.30553,26016
盛家带散盘,120.6471,31.306254,30729
螺丝浜,120.646445,31.307985,32567
半岛小区,120.650299,31.303834,25049
阔家头巷小区,120.64013,31.3036,28532
木杏苑,120.636582,31.30243,35827
东小桥弄散盘,120.641293,31.307832,33303
英雄大厦,120.646396,31.304363,11813
竹苑新村（姑苏）,120.648885,31.300278,25574
锦沧花园,120.63453,31.303993,34981
带城桥下塘16号,120.642056,31.305769,40590
钟楼新村,120.643439,31.312594,22715
南石皮弄,120.642488,31.302152,34091
苏医新村一区,120.635718,31.302155,28858
孔付司巷,120.640925,31.306584,26299
二郎巷,120.649092,31.305121,21250
明辉花园,120.63306300001,31.312678878252,19938
慧珠弄10号,120.63243,31.303694,25000
网师花苑,120.642573,31.304007,35329
木杏新村,120.637734,31.300019,33333
人民路,120.629459,31.310412,21536
八宝街8号,120.64137,31.311722,36000
苏公弄散盘,120.639636,31.312713,22072
汉口北1号公馆,114.325506,30.709939,10723
卓尔生活城,114.313513,30.697259,13291
汤山养龙山庄,119.074583,32.06309,13986
淳湖佳苑,118.949823,31.936316,15187
碧水华庭,119.082965,32.057494,10862
上怡新村,118.640621,31.909477,10372
永安花苑,118.635123,31.900357,12427
绿野枫景花园,118.982085,31.876505,12571
瑞景叶泊蓝山,118.779451,31.850118,19330
东虹花苑南,118.780687,31.869853,15208
东虹花苑,118.77736276677,31.873837059696,14942
东虹花苑西苑,118.77852138392,31.876709914481,17198
南京碧桂园语林苑,118.707552,31.886004,18689
欣旺花苑,118.851974,31.842424,17324
南京碧桂园浅山苑,118.702944,31.889208,18095
朗诗未来家,118.59934183803,31.857544115088,17498
国信慧谷山居,118.77313369423,31.86207723454,15717
海天雅筑,121.496744,37.459306,12617
澜怡园小区,121.48775994011,37.456254052697,13335
福地隆城,121.47936406785,37.455497749572,12947
翠屏诚园,118.838956,31.87676,31754
金海名园,121.484718,37.455122,12218
中海紫御公馆,121.499493,37.45604,12132
银城蓝溪郡,118.78622917964,31.831126873738,21035
中海国际社区,121.49195824491,37.44867384635,11981
马山寨海景豪庭,121.52814,37.458547,10122
中海银海熙岸,121.51166110194,37.452039229543,13350
华泰山水嘉园D区,120.437715,36.216125,18579
丰和苑一期,120.417377,36.187099,17745
嘉凯城时代城翡翠公元,120.432789,36.19456,20883
海右重华,120.431568,36.190344,23046
保利香雪山,120.422589,36.220125,18456
嘉凯城时代城翡翠郡,120.431181,36.198616,30491
天泰美家公寓,120.435286,36.224754,17128
天泰汉城区,120.43252,36.226316,17317
海信南岭风情A区,120.413861,36.200997,24067
金水翠园,120.41676944531,36.184065746444,23938
天泰城以琳美地,120.426347,36.230283,18914
帝都嘉园,120.405811,36.219151,19604
嘉凯城时代城翡翠赏,120.431719,36.199912,23641
天泰韩国城,120.433844,36.225066,16842
蓝山湾二期,120.41714927157,36.188875788531,23543
青山绿水,120.43142048833,36.201327153104,22382
天泰新罗园,120.429256,36.230174,19392
山水嘉园,120.436728,36.219219,19081
天泰奥园,120.43386100308,36.229324541663,17694
天泰城美立方,120.42692353449,36.232344896536,20320
湖山美地,120.432995,36.192572,25119
蓝山湾三期I派,120.41417,36.184934,23943
蓝山湾,120.414392,36.188993,24118
天泰迦南美地,120.429913,36.226375,19806
湖畔雅居,120.416735,36.196011,23932
青岛印象湾,120.423725,36.228128,22263
宝龙国际酒店公寓,120.403681,36.301399,10693
悦华园,120.414269,36.291633,13862
海棠苑西区,120.403927,36.297607,18741
赛尚领寓,120.408071,36.29653,15732
西樱花小区,120.39042064554,36.303377832231,9560
华城路一小区,120.409958,36.295163,17441
希尔景园,120.406499,36.293207,13746
海棠苑,120.407008,36.298225,13796
清华园,120.41641,36.30393,19423
弘通漫城,120.403662,36.295821,20892
海棠苑北区,120.40664,36.299294,14429
万科玫瑰里,120.416189,36.297549,22444
水榭花都,120.412365,36.295721,21075
张庄路76,116.961794,36.671859,11516
宝龙国际社区,120.401,36.302606,21369
廊桥水岸,120.410446,36.299791,19026
海棠苑南区,120.4056807905,36.296366504841,15219
圣富花苑,120.410537,36.30091,15208
春城花园,120.416244,36.300982,17646
八里桥22-1,116.970938,36.670223,15688
阳光公园1号,120.40534,36.287051,20048
万科魅力之城,120.400035,36.297552,21600
张庄路106号,116.95608268601,36.668640954535,11038
槐村街29号,116.968459,36.661604,13941
闫铁宿舍,116.955429,36.662219,15567
闫千户小区一区,116.95498675321,36.666603388358,13996
槐村街25号,116.968531,36.66054,16866
闫千户小区四区,116.95513442941,36.664774058018,15384
闫千户小区三区,116.95872424216,36.667850497914,14779
二合里小区,116.973049,36.665609,16754
闫千户二区,116.964596,36.66219,15243
五龙居苑,116.95426328176,36.664773969987,15131
张庄路104号,116.95671659076,36.667428523661,15622
槐村街7到9号,116.97141341458,36.664688685737,15374
富雅园,116.95484772287,36.667901825933,14933
鑫苑城市之家,116.96102604673,36.666573013012,20478
闫千户小区五区,116.9593203644,36.664261778673,14919
路劲御景城,116.969425,36.672016,20139
正大国际公寓,121.256398,37.566096,5307
广源天际,121.24506846716,37.576006291749,11746
海琴湾,121.24176055556,37.574104933957,12207
金庭花园南区,120.317998,31.136844,12500
太湖颐景,120.622814,31.192499,25588
振华海滨假日花园,121.21094,37.582763,11937
溪翔新村,120.596932,31.214227,13865
溪东新村四区,120.604198,31.209808,8919
吴越新天地广场,120.609245,31.217374,6833
古北太湖源,120.312108,31.100971,16384
越溪庭院,120.594746,31.212136,20537
太湖之星,120.367801,31.195675,38090
国泰三村,120.691367,31.257793,16010
林屋村龙洞山别墅,120.315702,31.112215,8021
中海青公馆,120.708315,31.24452,23208
鑫苑湖居世家,120.704387,31.239386,23587
御湖湾,120.696507,31.255156,23416
中海双湾花园二期,120.709707,31.248158,23258
中海双湾锦园,120.710345,31.244104,23067
合景叠翠峰,120.702792,31.255381,25831
阳光天地,120.701456,31.251851,25420
保利悦玺,120.692397,31.251991,25690
弘阳上湖,120.706878,31.251868,23136
保利观湖国际,120.689136,31.255341,23714
尹山湖韵佳苑,120.699635,31.255479,21664
九龙仓碧堤半岛,120.685911,31.251798,26781
保利居上,120.689322,31.252247,23769
中海双湾花园一期,120.714067,31.249249,23021
首开常青藤,120.684515,31.247531,22762
新城湾语城,120.619702,31.192347,19919
太湖高尔夫山庄,120.410751,31.220127,29127
环香小筑,120.46992297331,31.230361992502,30563
太湖天阕,120.448498,31.228519,24525
香山花园,120.414036,31.231587,8283
太湖温泉别院,120.416528,31.219216,10581
苏州御玲珑,120.4627,31.230487,19438
太湖香榭度假村,120.470173,31.22982,27322
苏州太湖城仕高尔夫酒店公寓,120.397142,31.223416,17754
太湖春申居,120.373845,31.219017,57806
碧瀛谷,120.387386,31.222397,22141
梅香雅舍,120.438433,31.233787,16084
华丽家族太上湖,120.444475,31.226709,20760
黄金水岸花园,120.472155,31.227515,19890
花样年别样城,120.427415,31.229453,13692
花样年太湖天城,120.423714,31.222258,11362
中信太湖城浩阁,120.424642,31.221188,14684
太湖相王府,120.427676,31.227107,17281
太湖纯水岸花园,120.431476,31.228029,12118
华丽家族太湖汇景,120.439738,31.231173,14737
帝豪花园,120.484934,31.241699,13498
星城铭座,120.493048,31.246409,8693
尼盛西城,120.49358773198,31.233546210819,15551
太湖水云天,120.482247,31.237819,16818
香山里,120.509699,31.243872,13400
东胥香花园,120.484274,31.230619,15297
亿城天筑,120.484981,31.249174,16292
澳海胥江湾,120.499064,31.245107,13608
胥香园,120.488892,31.229126,15647
越旺公馆,120.598746,31.217078,14669
金辉我的日子,120.595261,31.215235,20785
海馨花园,120.616635,31.219011,22616
新思家园,120.549694,31.181865,13675
越城新村,120.592057,31.217857,11800
南苏州中央鼎寓,120.598021,31.221779,9535
简之韵花园,120.614346,31.218552,18177
锦和加州南区,120.59285,31.218267,18547
富利广场,120.593699,31.218499,12904
翠湖湾,120.61310458832,31.2198230285,21635
嘉盛花园,120.544467,31.182743,16540
和昌熙溪里,120.610831,31.218181,28412
溪东新村三区,120.607684,31.217224,12280
石湖华城公寓,120.610553,31.230287,13865
文溪花苑,120.59149095441,31.203625777122,14280
石湖天玺,120.6065,31.224235,24942
石湖华城湖郡,120.610562,31.227948,24690
石湖华城湖郡华庭,120.610034,31.229547,20518
南溪苑,120.610436,31.22076,18903
蓝光可可蜜园,120.597008,31.209484,25083
景瑞御江山,120.587834,31.205673,19582
越湖花园,120.587909,31.212133,19258
石湖金钻,120.60818059853,31.221583719447,9775
美田青春花园,120.540649,31.202122,9298
锦悦苑,120.607435,31.220647,19404
锦和加州北区,120.594794,31.219939,19692
新城石湖公馆,120.596979,31.21997,22717
石湖之韵,120.609124,31.232093,22092
石湖华城,120.606838,31.226824,20737
磁山温泉小镇,121.086408,37.561512,8837
金桥碧海绿洲,121.24237945731,37.576472318988,12436
静海阳光海岸,121.24127677227,37.572549724809,12512
宁海佳苑,121.23842642937,37.574422498915,10663
宁海小区,121.23804117202,37.57297098894,11103
天和静海苑,121.22910815272,37.578312278982,12684
华明星海湾,121.2334845726,37.573288446061,14278
静海小区,121.24355676018,37.572790802492,11391
银和怡海国奥天地,121.22925459994,37.575072041389,10615
怡海翠庭,121.2363629493,37.577868229522,10945
帝景苑,121.185516,37.587572,25189
天马相城四期,121.179717,37.588208,12025
天马相城二期,121.18977,37.586125,11683
海情花园别墅,121.256207,37.572448,20640
福星大厦2期,121.256244,37.568883,9935
天马相城三期,121.189463,37.582675,10144
海晟花园,121.180849,37.584977,10512
啤酒厂宿舍,116.981373,36.70602,14718
药山郡,116.97907,36.715499,13702
三箭瑞景苑,116.970471,36.721395,15529
荣盛花语馨苑,116.981655,36.723257,14304
万科金色悦城,116.980869,36.728518,14670
海天花园,121.23274905743,37.557032871016,16024
立雪佳苑,121.2282797452,37.562370131418,12018
蜜橙,121.24200719775,37.543423651128,10228
海信慧园西区,121.22726610412,37.560418442431,12904
北方月光兰庭,121.23366216231,37.560154811157,14290
海信慧园,121.2297656543,37.557406865736,12869
星海广场,121.256375,37.569945,9720
蓝天国际大厦,121.256958,37.568697,9363
鑫源大厦,121.25044,37.568279,8531
天地景苑,121.25638022673,37.56463258603,12160
科信佳园,121.247975,37.568661,9235
万泰海公馆,121.245906,37.57044,9946
亲海翠苑,121.246614,37.57184,10163
星海小区,121.25250629473,37.57210964834,10193
阳光花园,121.26063250106,37.571954131622,13896
星颐广场,121.256587,37.567502,12664
黄海别墅,121.261779,37.574365,16095
凤台小区,121.24744299097,37.566119917095,10200
听涛花园,121.26243026246,37.576142562211,12622
金城小区,121.25384245951,37.565438061745,10475
三和星海花园,121.25724056322,37.571610277014,11598
黄海小区,121.24889314801,37.571942318016,10344
碧海云天,121.25542371574,37.575034983217,13320
星海花园,121.25441466799,37.57173934255,13460
蔚蓝海岸,121.25000694755,37.574902512784,14782
制锦市铜元局后街6号院,117.020224,36.676432,24279
制锦市少年路5号,117.019842,36.679035,23219
制锦市英贤街,117.01555876235,36.672973306616,20450
制锦市铜元局前街32号,117.0218,36.677677,20780
天马中心广场,121.263522,37.56713,11121
新世纪商贸大厦,121.268619,37.566625,8104
黄山花苑,121.269974,37.574849,12417
金力大厦,121.278279,37.567871,6384
月浜东公寓,120.643673,31.269556,18818
西塘南巷4号,120.632812,31.279063,15980
夏莲花园,120.648799,31.277288,23195
苏苑新村东区,120.642699,31.278877,18943
吴中西路39弄,120.632993,31.277747,17889
吴中东路159号,120.638014,31.277662,15686
龙港二村,120.63158884686,31.271248856228,18619
吴中东路散盘,120.643683,31.278271,17348
月浜二村,120.644812,31.27657,20837
康悦家园,120.547677,31.258639,18718
东门町,120.544383,31.267171,15290
天灵小区,120.520061,31.266783,17308
山景天下,120.494034,31.260474,17467
天伦随园,120.519847,31.271138,59770
飞凡第五街,120.550321,31.261006,10828
花样城公寓,120.54402,31.263036,14815
金沙湾商业广场,120.526009,31.287843,7200
泉景花园,120.519922,31.273306,23120
香溪花苑,120.530253,31.256915,24752
花苑新邨,120.52138586423,31.265859318771,14623
海兰堡,120.533497,31.257344,21282
东街散盘,120.527863,31.255661,18400
凯马悠尚生活广场,120.550632,31.259499,11198
苏州灵岩山庄,120.51845,31.260106,19754
鑫禾花园（木渎）,120.51491402135,31.250355883093,14696
金山浜花园,120.52727518724,31.293633922355,21138
珠江首府,120.547039,31.258623,13600
东方锦城,120.554399,31.261777,13322
青山溪语花园,120.52286711816,31.296651335568,17460
山合院,120.497299,31.260496,18567
合润御府,120.514676,31.253311,24812
灵岩新村,120.527307,31.253473,15455
学林雅苑,120.526373,31.248091,15361
上城,120.560005,31.268275,11656
新姜窑花园,120.51823171025,31.250810399506,19185
香榭假日山庄,120.525605,31.279618,17939
香港花园,120.518855,31.266743,9434
金山别墅,120.517401,31.285124,25949
天平花园,120.526863,31.273175,18439
诚河新旅城五区,120.564134,31.273373,24667
大运城,120.541455,31.262827,12784
翠坊新村,120.527208,31.260111,17007
瑞景苑,120.53004557454,31.276525642548,17835
馨乐花园,120.517038,31.273115,13030
世茂御珑墅,120.524742,31.294098,26638
岚山别墅,120.495111,31.262053,23086
中澳广场,120.551031,31.260755,9428
姑苏印象花园,120.534739,31.250711,16773
棕榈湾尼盛山庄,120.51684185636,31.275202758804,18122
明月湾二期,120.528978,31.278133,49270
凯马广场,120.551507,31.263166,9117
天邻风景,120.51191,31.27684,33931
朗诗绿色水岸家园,120.534602,31.254566,22716
朗诗绿色街区,120.536879,31.257604,23222
金枫美地,120.5400175034,31.259514027411,17785
姑苏桃花源,120.518497,31.280142,33247
诚河新旅城一区,120.56643,31.276882,20075
诚河新旅城七区,120.566192,31.269434,20500
正荣华府,120.538145,31.269633,20466
云山诗意,120.54424,31.261135,19312
诚河新旅城二区,120.56668682915,31.274948538533,20204
诚河新旅城六区,120.561121,31.273475,21159
青年城,120.52932727743,31.287790874071,20761
尼盛滨江城,120.564937,31.257396,19119
红星国际生活广场,120.558474,31.267079,20971
珠江新城,120.547246,31.26083,11795
正荣幸福城邦,120.540562,31.270559,17881
浙建枫华广场,120.537079,31.276188,13438
金枫国际,120.537383,31.279981,13521
旭辉香格里,120.568404,31.269263,20560
永新大成珺,120.535518,31.264328,17544
诚河新旅城三区,120.567027,31.273317,21011
长江壹号,120.560831,31.269247,12410
合景睿峰,120.540652,31.267179,11301
枫华紫园,120.539133,31.276701,19944
吴中西路57号,120.631561,31.277803,17074
合景领峰,120.53346426747,31.2793106118,21636
苏香名园,120.558878,31.270852,16192
东吴北路散盘,120.633592,31.277215,16003
太湖东路212号,120.644183,31.268928,18600
月浜街散盘,120.641782,31.274156,16243
迎春路733号,120.644325,31.282227,21030
东吴北路129号,120.633913,31.278785,18469
吴中东路105号,120.642833,31.277912,19089
东吴北路61号,120.63182,31.274907,19240
月浜西公寓,120.641748,31.269726,19415
东苑路113号,120.636821,31.279271,21067
吴中苑小区,120.641373,31.2773,23937
新吴楼,120.646441,31.278687,21682
宝带东路散盘,120.649023,31.272478,21798
迎春路散盘,120.645577,31.275003,28986
东苑路社区,120.636779,31.278953,16667
西塘北巷11号,120.631194,31.28294,17828
西塘北巷7号,120.63065,31.28187,17347
西塘南巷8号,120.631708,31.279074,17261
中元商务大厦,120.634691,31.270289,11326
宝华公寓,120.64121556447,31.273279818412,19095
龙港三村,120.63320565194,31.271016216819,19024
花卉小区,120.63832,31.283148,20523
西塘北巷2号,120.632611,31.281977,15886
西塘南巷散盘,120.632072,31.278851,17347
吴中西路65号,120.63049,31.277974,16725
文卫新村,120.647252,31.278193,18543
长桥新村,120.651501,31.275493,18400
城中苑,120.638445,31.276206,16571
航运新村,120.652249,31.27307,14959
吴中东路103号,120.642789,31.277655,18476
苏美中心,120.635588,31.272924,20643
金秋家园,120.650505,31.280198,19853
宝带一村,120.64760746739,31.272553077383,19312
太湖东路280号,120.640927,31.268526,17839
东苑村,120.636006,31.277141,18846
西塘北巷,120.629617,31.282446,18055
团结桥巷,120.635304,31.282822,20195
双冠南门商业广场,120.632395,31.282885,15107
嘉宝花园二期,120.644566,31.274405,24995
东吴花园,120.633488,31.276189,19702
苏苑二村,120.646438,31.279269,19721
月浜一村,120.639428,31.275641,19749
汇盛花苑,120.63555561842,31.27415495185,20112
鼎盛花园,120.63998443931,31.283025726972,26139
嘉宝广场,120.64447075595,31.27305186097,17442
东吴新村,120.63554,31.282218,18284
龙港村,120.63256,31.275602,16990
湄长新村,120.642942,31.282349,17370
月亮湾,120.645731,31.272171,19020
嘉宝花园一期,120.647766,31.275722,22044
苏苑新村南区,120.638632,31.279781,17999
苏苑新村北区,120.640284,31.281073,18136
克拉公馆,120.634385,31.283151,21849
西塘新村,120.632477,31.280551,18968
嘉宝花园三期,120.647826,31.269515,21849
尹东新村,120.7166318947,31.245566042531,16356
永兴大厦,121.279461,37.568701,9167
正荣国领,120.707947,31.258914,24323
金沙滩花园小区,121.27532730371,37.573205833715,10363
念慈别墅,121.271477,37.572696,29692
友谊大厦,121.275608,37.568985,6713
天一苑小区,121.27664720605,37.562013521101,11323
海诺大厦,121.272734,37.566232,8211
福锦小区,121.21654191501,37.562113573683,8932
文苑小区,121.242702,37.566344,9657
泰山名座,121.276243,37.564523,11669
东方国际,121.225808,37.57049,7519
金桥澎湖山庄,121.20485311499,37.569082713517,11436
海天景苑,121.19845495926,37.571201397047,8123
海信依云小镇,121.202617,37.55297,10256
I-6新时代小区,121.265828,37.572644,7288
嵛景华城,121.213403,37.565629,10168
海鹰大厦,121.278129,37.565638,7406
华明大厦,121.275478,37.563237,9225
天一大厦,121.275855,37.561841,8214
新世纪现代公寓,121.282979,37.566747,8953
永兴花园,121.278034,37.568792,9276
金东世纪B,121.293025,37.563913,10160
恒达大厦,121.27434655614,37.562092023438,8755
静海国际公寓,121.275941,37.575195,9221
海澜花园,121.2772026595,37.565241243548,7401
海滨花园,121.268995,37.575086,12901
旭日小区,121.27298906334,37.570258405439,9958
金东世纪A,121.29197,37.564163,8881
金东小区,121.290555,37.561821,10099
临海君天下,121.278429,37.576278,11722
金胜小区,121.26526967644,37.564603001072,11420
银海花苑,121.27259047947,37.565594483546,11375
银芝小区,121.27826176346,37.56390297147,10106
晨光小区,121.2797119985,37.569138285886,10018
制锦市筐市街,117.01891751361,36.671643208241,23917
制锦市西杆面巷,117.017613,36.674755,21809
海阔天高,121.275141,37.574655,7107
丹阳小区,121.26685911592,37.570417987547,11199
华电小区,121.27299543003,37.563600080811,9676
金域河畔,121.29225241331,37.558901765376,11477
夹河苑,121.29336196883,37.567186428484,13143
银和怡海花园,121.26999540699,37.564179328249,14614
制锦市周公祠街,117.02017,36.67429,27908
制锦市锦缠街,117.017383,36.675209,21539
中建悦海和园北区,121.14707852904,37.60668385357,7947
制锦市花店街,117.017614,36.672158,22701
黄金家园,121.16869885056,37.591355334514,8594
制锦市铜元局前街2号,117.02182384969,36.681195444717,18344
制锦市北小门街,117.01640399249,36.67587380354,19505
乐安街,117.015943,36.674301,20378
制锦市锦屏街,117.016828,36.674793,19828
金桥澎湖湾,121.169153,37.592512,9648
越秀星汇金沙,121.16383955117,37.5942072714,9599
制锦市福康街,117.01591251419,36.671953861992,20164
中建悦海和园,121.15136085137,37.603902840708,8887
制锦市东杆面巷,117.017875,36.673668,23347
制锦市焦家隅首,117.016433,36.673056,20085
制锦市少年路,117.018382,36.678881,20448
制锦市制锦市街,117.0198164739,36.675754091174,21261
名士阁,117.018955,36.679565,20395
制锦市启盛街,117.02026,36.677884,18767
制锦市铜元局后街,117.02072778238,36.675541795177,21211
制锦市镇武街,117.01730802834,36.675966335103,19430
金冠花园,117.02007058576,36.681086043088,21407
中茵御墅湾,120.682158,31.286372,31514
西塘北巷8号,120.627261,31.280404,16393
龙华园,120.6227,31.277957,14701
澄湖花园,120.875889,31.28677,18408
嘉馨苑小区,120.828782,31.308477,14967
雅戈尔天宸,120.771399,31.339178,25463
璞缇墅,120.768338,31.340337,31436
璞墅,120.768558,31.337334,32638
太阳星辰花园天邑,120.769531,31.341942,37506
苏州铂悦府,120.752494,31.335908,48697
金鸡湖壹号,120.724231,31.31126,66122
春晓别墅,120.68945,31.317579,121466
东方之门,120.686041,31.322229,47998
娄门下塘43-1号,120.65962,31.331049,19519
娄门路166号,120.655481,31.332843,21238
星东环商务大厦,120.654788,31.326199,15703
东环路223号,120.653892,31.328286,20161
一斗山路6号,120.655796,31.328464,20898
东环路222号,120.654001,31.328443,19534
楼盘回收站,120.657954,31.320607,15225
三星苑,120.660318,31.32529,25269
东港怡乐花园,120.657209,31.32485,33531
娄门路散盘,120.654143,31.331593,20346
娄门路130号,120.65699507009,31.332628998619,20211
东环路221号,120.653986,31.32806,17992
董事汇云尚公馆,120.678646,31.323036,38713
苏信大厦,120.681286,31.312322,20312
商旅大厦,120.72600777588,31.329042679788,15241
圆融公馆,120.72082,31.324521,42928
圆融天玺,120.72141,31.323627,45809
苏悦广场,120.675487,31.320277,51525
澜韵园,120.688409,31.315414,63938
沁苑,120.688324,31.330598,47234
万杨香樟公寓,120.668354,31.327282,29544
翠湖雅居,120.68813,31.319282,47639
万科见滨园,120.7397,31.311638,51402
白领公寓,120.67833,31.318592,37824
加城湖滨公寓,120.6834212773,31.329975541945,33623
苏州凤凰文化广场,120.674119,31.321154,32036
星海人家,120.67680041842,31.328496916966,33667
铂金公寓,120.671952,31.321912,30751
馨都广场,120.683386,31.313503,43005
都市花园东区,120.673973,31.324509,36637
苏州中心8号,120.684973,31.319816,50249
天翔花园,120.673717,31.322001,29516
天域西区,120.678805,31.325378,40408
都市花园西区,120.669625,31.323821,32950
天域东区,120.682087,31.32616,45039
映象花苑,120.678384,31.315248,48713
馨湖园,120.685236,31.313658,41557
环球188,120.67666473726,31.319255566022,36047
四季新家园,120.678948,31.317529,40577
新加花园,120.68080571123,31.32923040723,30079
中茵皇冠国际,120.686567,31.326747,43430
中天湖畔花园,120.686509,31.330737,35692
加城花园,120.680282,31.313919,45675
师惠花苑,120.67528448869,31.318037926171,47425
湖左岸,120.684038,31.317273,42903
圆融星座,120.72178,31.324793,33482
德邑,120.736307,31.311489,36818
中海半岛华府,120.729314,31.315828,40174
兆润云顶汇,120.741139,31.331405,32905
万科中粮逸庭,120.744876,31.311348,44708
金鸡湖花园,120.725581,31.316467,53000
晋合公寓,120.728496,31.320223,37222
东湖大郡一期东区,120.734905,31.317732,28774
乐嘉大厦,120.725791,31.330858,27507
丰隆城市中心,120.722664,31.323083,32536
金匙望湖,120.724992,31.330589,27661
朗诗国际街区,120.747904,31.311019,38055
东城郡,120.738319,31.321673,37430
东湖大郡一期西区,120.732075,31.317871,30247
金湖湾花园,120.7408358542,31.32387182704,38789
诚品居所,120.716727,31.327853,50704
东湖春之韵,120.735992,31.322159,30412
伊顿花园,120.73713685814,31.3135283565,36693
东湖大郡二期,120.738202,31.31767,30838
合景领汇,120.738498,31.330819,29962
欧洲城,120.742375,31.316815,30111
东湖大郡三期,120.734793,31.321731,30747
南山巴黎印象,120.73274,31.31295,31549
自由水岸花园,120.747975,31.323778,32451
第五元素,120.745424,31.317153,29103
东湖林语,120.748347,31.318376,28635
枫情水岸,120.731253,31.32224,34430
鸿利达大厦,120.66980336658,31.292858083211,19096
澳韵花园,120.74374,31.313633,30881
湖畔天城,120.74413990423,31.324266852987,30002
苏港大厦,120.669114,31.292801,19185
葑谊新村,120.667836,31.294647,19651
恒润后街,120.66276279654,31.297950101902,32217
华成大厦,120.6690937196,31.294596021625,21715
葑谊新村北区,120.66466,31.295241,20015
城市公寓,120.669049,31.292078,19248
群谊二村,120.66744969234,31.293023560749,18688
群谊新村东区,120.67044716523,31.292000365233,17627
黄天荡路60号,120.66210537398,31.300554600688,23755
群星苑村,120.68010483503,31.288698915683,19139
独墅苑东区,120.672396,31.298989,29914
文萃苑,120.667142,31.295842,27264
通园大厦,120.670065,31.294576,19898
太阳城缘邑,120.77196,31.340558,34395
太阳星辰花园泊朗峰,120.768722,31.335963,32244
汀兰家园,120.797692,31.348243,20827
万科玲珑东区,120.752903,31.339533,44267
九龙仓风华里,120.756982,31.33614,36556
九龙仓繁华里,120.76008,31.338954,39748
九龙仓时代上城,120.76012293684,31.336900383982,41749
太阳星辰花园湖邑,120.772073,31.337374,28946
九龙仓年华里,120.757661,31.338907,36988
榭雨苑,120.767338,31.343376,28049
钟南花苑,120.764122,31.343715,25655
左岸香颂,120.77097131891,31.344800123432,26507
恒景花园,120.8248311893,31.313204114398,17746
吴淞新村西区,120.826995,31.304802,13333
星胜客（南）,120.82676239721,31.3068580551,17917
金苑新村东区,120.83406109685,31.314447977064,15978
园东社区,120.836358,31.315418,17727
东景公寓,120.835551,31.311253,17523
金淞湾花园,120.830512,31.300941,12177
星胜客（北）,120.826034,31.307917,16667
盛景华庭,120.83222307327,31.310459443431,17188
浪花苑,120.839805,31.301296,15795
金雅苑,120.832447,31.309572,17624
新盛花园西区,120.83334081902,31.305158497522,12975
金邻苑,120.83573379343,31.309913042278,17708
闻涛苑,120.834685,31.300987,12067
浦湾公馆,120.826667,31.315426,18770
中新领袖天地,120.832883,31.337666,10488
滨江苑,120.842809,31.297454,16022
玲珑湾花园五区,120.703272,31.333912,50812
玲珑湾花园二区,120.705427,31.334728,41350
玲珑湾花园一区,120.70580928936,31.332335559407,42702
玲珑湾花园十一区,120.69804962249,31.334790232757,50248
雅戈尔风尚,120.71646668888,31.337881495671,45571
玲珑湾花园三区,120.70483104592,31.335780776226,41201
玲珑湾花园九、十区,120.697867,31.333132,64570
玲珑湾花园七八区,120.7003818281,31.333230910462,57618
玲珑湾花园四区,120.7030783526,31.332634545172,54062
玲珑湾花园六区,120.702049,31.335191,43319
雅戈尔伯爵,120.717421,31.333906,47476
雅戈尔潇邦东区,120.71328165777,31.337449038261,48192
雅戈尔潇邦西区,120.71017971589,31.337000178879,49823
和风雅致,120.714622,31.333804,55502
中海星湖国际,120.722551,31.332795,47404
雅戈尔YAKR公馆,120.717438,31.335635,36601
中海湖滨一号,120.712069,31.334588,51936
荷韵新村西区,120.73272100377,31.30407929795,23588
海尚壹品,120.722661,31.335719,40735
联丰广场,120.742927,31.302328,12071
敦煌新村四区,120.747432,31.298341,18444
敦煌新村一区,120.749161,31.302098,14849
荷韵新村东区,120.73834571666,31.303537565309,21186
莲花新村八区,120.735889,31.296817,21277
荷韵新村北区,120.735336,31.302591,22659
绿洲别墅,120.73486180979,31.299487651867,27443
莲花新村四区,120.742986,31.29515,19743
敦煌新村三区,120.745101,31.300185,20377
莲花新村二区,120.74756767223,31.294578486131,20148
莲花新村七区,120.73291303758,31.289596121841,19584
荷韵新村南区,120.73810212275,31.300355304305,21500
荷韵新村高层区,120.7350311075,31.30473598294,21520
莲香新村南区,120.748411,31.302991,20928
莲花新村六区,120.73821515208,31.295541674484,17269
莲花新村五区,120.737355,31.289067,19507
莲香新村北区,120.747948,31.306085,23320
莲花新村三区,120.743404,31.289108,18346
莲花新村一区,120.74795035309,31.289142916708,18607
金辉尊域雅苑,120.747086,31.301889,27460
北极星花园,120.756038,31.302919,30920
中南锦苑,120.756378,31.301158,29449
中旅蓝岸国际,120.735669,31.306587,27773
星湖名轩,120.732232,31.289828,22758
蝴蝶湾,120.73229671189,31.296519291004,31380
天地源橄榄湾,120.732594,31.306754,26159
龙西路,120.624069,31.276989,12999
金色尚城,120.73884,31.306267,26869
水香街散盘,120.627131,31.277613,16271
吴风雅苑,120.623246,31.276952,23339
龙西新村箭阙苑,120.62626640896,31.281959128433,17691
龙西路170-1号,120.624475,31.274782,16600
龙苑新村南区,120.625673,31.275495,11089
吴中公寓,120.628587,31.276736,17775
兴达路36号,120.627271,31.282011,18505
新景苑,120.62427,31.282101,18563
先奇园北区,120.627935,31.277063,15251
盘蠡南苑,120.62175,31.27265,22388
苏达公寓,120.630456,31.268783,17388
龙西新村莲花苑,120.62788343295,31.282218362042,18621
城西新村,120.623624,31.273368,18053
龙西路35号,120.625132,31.268769,15853
吴中西路散盘,120.62910342472,31.27810278013,15005
盘蠡苑小区,120.621002,31.278138,17499
龙西新村莫厘苑,120.62512494814,31.280265444088,17894
润丰商业广场金领公寓,120.528129,31.308525,13100
金澄湖花园别墅,120.877381,31.236772,22560
东淳苑,120.657597,31.320509,21869
金湖阁,120.659636,31.312319,26684
鸿运花园,120.881743,31.235284,12739
书香苑（园区）,120.65786973855,31.316638697908,23418
一斗山路,120.657045,31.329991,20697
新苏安新村,120.653673,31.331712,21255
华庭苑,120.6657231904,31.324130296985,33792
夏家桥129号,120.659853,31.306846,21606
新苏苑一区,120.657992,31.337836,20755
夏家桥100号,120.663404,31.306386,19467
宜家公寓,120.667765,31.314786,44683
徐家浜8号小区,120.658529,31.316235,21059
风华苑,120.661397,31.303437,20687
商旅新悦城,120.658279,31.312549,26223
韶山花园,120.661348,31.316711,32468
绿城花园,120.65797087509,31.319830392357,28481
新苏苑二区,120.658244,31.335492,21478
夏家桥118号,120.662092,31.305853,23097
宏葑四村,120.662042,31.307475,20126
仁文公寓,120.65957281396,31.308948104883,18094
富华苑,120.66291,31.303849,21533
苏安新村,120.65406,31.333503,19819
万科金域缇香,120.658889,31.311028,36141
贵都花园,120.66491374754,31.321441815948,28145
徐家浜新村,120.65925376244,31.315050510844,20522
东方花园,120.665011,31.326174,26670
东港二村,120.65955,31.322313,24121
新馨花园,120.665789,31.318048,39934
徐家浜二村,120.66094825885,31.312881708517,19495
夏园新村,120.661716,31.309441,19031
东港新村,120.659761,31.327822,23316
路劲尚澜湾,120.771915,31.30651,39681
青年公社小区,120.809397,31.329753,17705
路劲澜山澜,120.769472,31.306392,36829
星公元名邸,120.761261,31.316136,44922
中海国际社区（一区）,120.757781,31.318659,34042
中海国际社区（二区）,120.755787,31.321692,30399
中海国际社区（五区）,120.756619,31.329146,41240
天地源七里香都,120.762408,31.320152,37229
中海国际社区（四区）,120.75665639064,31.327530954769,34936
中海国际社区（三区）,120.757079,31.324847,34528
澜调国际,120.774361,31.305566,32606
古娄一村四区,120.70473753752,31.354619736703,17777
水墨三十度,120.762672,31.325054,32425
启园新邨,120.696173,31.352259,17430
高浜一村,120.695595,31.347805,18173
古娄一村二区,120.70723881369,31.353939690333,16615
启园新村,120.696278,31.352223,17578
古娄二村三区,120.70609776556,31.347185754263,17666
新娄花园,120.698739,31.353865,16788
晶汇大厦,120.660297,31.34552,9684
怡苑公寓,120.70018909339,31.350197010559,14104
古娄二村二区,120.70533286278,31.348380940907,16001
临芳苑三区,120.69069474436,31.349147465219,15324
高浜三村,120.695065,31.352053,17571
高浜二村,120.696642,31.350924,15517
古娄二村五区,120.70991671458,31.348071037068,13473
古娄二村一区,120.706908,31.349799,16444
大丰收商业广场,120.703009,31.352609,25362
泾园新村,120.663252,31.34747,20724
东园映象,120.697125,31.353589,17537
张泾新村三区,120.696149,31.344406,18745
古娄一村一区,120.70537224117,31.352903412942,17576
泾园二村南区,120.669902,31.344865,19447
泾园新村南区,120.66431184698,31.344975961881,20831
日兴花园,120.6619871277,31.344855294555,19773
临芳苑四区,120.69012929643,31.351732913023,16327
临芳苑一区,120.691081,31.34794,21127
锦泽苑【园区】,120.700284,31.349494,20487
临芳苑二区,120.69178898843,31.345494698347,20425
泾园二村北区,120.6659762383,31.348755177689,19776
昂内天骄花园,120.660988,31.348137,18838
张泾新村二区,120.69858985877,31.346036988694,18349
张泾新村一区,120.70244136216,31.347085570058,17126
双友新和城,120.728266,31.357565,26320
古娄二村四区,120.70823149907,31.347655859496,17296
星海云顶花园,120.704345,31.349401,19128
置地新唯花园,120.736634,31.355839,20458
金锦苑,120.7346,31.354651,23301
中海国际社区（六区）,120.752673,31.32501,34462
中海8号公馆,120.75438,31.317716,39033
路劲凤凰城,120.774793,31.31169,25062
中海国际社区（七区）,120.752774,31.328339,33572
路劲主场,120.771314,31.311944,27462
觉悟草堂,120.386327,31.053657,10526
东山家和院,120.425744,31.098753,15385
金益一村,120.676075,31.294152,20740
天骄美地公寓,120.666165,31.29953,28155
建屋乐活城,120.730553,31.295036,32598
阳澄人家北区,120.786257,31.423209,14423
阿卡迪亚三区,120.737562,31.377964,26556
青苑新村三区,120.79757408843,31.37181632468,14424
旭辉芭堤兰湾,120.738997,31.372436,35171
城西新村宝带花苑,120.622963,31.273792,18111
龙西新村缥缈苑,120.62825,31.280594,18439
水香公寓,120.628245,31.273762,19928
新吴苑,120.625089,31.272403,15554
佳运花园,120.630591,31.266805,18192
南丰花园,120.618368,31.276581,29945
先奇园南区,120.627077,31.274363,16253
怡景万家,120.613033,31.266865,25590
龙西路28号,120.62616,31.267974,19961
原墅名君别院,120.619625,31.278186,31877
典雅花园,120.61838,31.267559,23241
盘蠡苑,120.619451,31.274977,18152
龙西新村,120.62495033151,31.281043023138,18473
聚宝苑,120.626065,31.273481,17974
龙苑新村,120.625133,31.276088,18244
吴中村,120.628403,31.277434,15878
先奇园,120.626377,31.276327,17859
万佳花苑,120.614721,31.267677,22484
吴中二村,120.628693,31.275206,14079
盘蠡花园,120.61848358,31.275076637691,21681
盘蠡村,120.619846,31.273276,17384
水香七村,120.621425,31.276922,17991
水香五村,120.622455,31.281358,16698
水香一村,120.628663,31.279629,16786
新苑村,120.628911,31.270571,18492
四季晶华,120.613005,31.271383,26523
博雅苑,120.612857,31.272241,26353
美之国花园,120.620614,31.270262,20928
青剑湖花园二区,120.721265,31.364885,14796
青湖丽苑,120.720366,31.374115,32062
水香二村,120.625149,31.278772,18383
青剑湖花园三区,120.7177545665,31.362708982026,18854
青剑湖花园E区,120.70998,31.361274,22143
中信森林湖玺悦,120.719621,31.385439,30330
美庐,120.715196,31.373954,29362
青剑湖花园一区,120.721839,31.363309,15367
中海森林湖,120.719334,31.383087,41907
观澜丽宫,120.727103,31.377249,24795
青剑湖花园四区,120.7183,31.3649,16676
景悦星湖（南区）,120.720815,31.379549,26789
青剑湖花园B区,120.71395199693,31.361957883822,18275
青剑湖花园A区,120.71394974325,31.364453838179,19414
华新国际天著,120.745016,31.379592,41209
星湖都市生活广场,120.7195,31.371034,15127
建屋恒业天著,120.744792,31.380482,24318
翡翠湖公寓,120.744009,31.377992,24699
优公馆,120.76052,31.377318,24453
曼哈顿锦江之星,120.717562,31.367426,14435
雍景湾花园西区,120.717132,31.378694,32186
畅苑新村二区,120.785947,31.367857,17017
景悦星湖（北区）,120.720672,31.381118,25694
青剑湖花园D区,120.70945933197,31.364001609455,17551
青剑湖花园C区,120.721071,31.366084,17384
阿卡迪亚四区,120.737344,31.38106,46776
君地上郡,120.724642,31.377464,28906
中信森林湖棕榈园,120.721645,31.385633,28136
青剑湖花园F区,120.70863,31.360973,18758
雍景湾花园东区,120.720771,31.37852,29619
中新翠湖,120.745909,31.378586,30499
青湖丽苑星湖客,120.718205,31.374451,23148
金辉优步花园,120.743376,31.381599,26937
君地新大陆,120.720259,31.367719,11780
金色湖滨,120.728383,31.379942,29486
朗诗未来街区（四期）,120.747971,31.379588,30383
朗诗未来街区（三期）,120.755957,31.376329,29888
阿卡迪亚二区,120.741373,31.378421,35782
金沙富都广场,120.719763,31.369357,11431
都市VIP,120.721597,31.36926,12114
上君花园临湖壹号,120.72443065129,31.380471162709,30900
阿卡迪亚五区,120.73791420768,31.383498511768,27062
中信森林湖香樟园,120.72044,31.38308,29780
阿卡迪亚一区,120.741135,31.376737,30621
青剑湖公馆,120.729286,31.366604,29723
朗诗未来街区,120.75584,31.376204,32605
维纳阳光花园南区,120.764321,31.374902,24402
怡邻社区一区,120.80923496131,31.380815049985,17391
首开悦澜湾,120.726674,31.363552,28127
置地青湖语城,120.742618,31.372682,25811
怡邻社区五区,120.81244275823,31.378873848472,17550
维纳阳光花园北区,120.75917,31.378423,26236
香堤澜湾,120.666554,31.355793,19506
青苑新村二区,120.794831,31.369194,14912
怡邻社区二区,120.81164031587,31.381200547008,13228
青灯新村北八区,120.78270218775,31.370016019149,18077
悬珠花园西区,120.796463,31.378365,17170
阳澄湖滨花园大厦,120.803374,31.384286,22698
金陵花园,120.80031605436,31.364782308523,14141
青灯新村西区,120.78023412146,31.370182494311,17633
畅苑新村四区,120.783077,31.366858,20462
青苑新村一区,120.797463,31.36988,18444
青苑新村五区东,120.79233,31.372829,16213
青苑新村六区,120.78496694454,31.372635164726,15818
阳澄人家南区,120.782386,31.419996,16827
厦亭家园,120.783922,31.359762,13455
畅苑新村一区,120.787797,31.366575,16058
东亭家园,120.789899,31.361285,20000
悬珠花园东区,120.797113,31.377792,17424
唯锦苑,120.80752,31.366092,14881
亭苑社区B区,120.775336,31.369543,18280
绿地阳澄名邸,120.803114,31.365741,20567
融锦苑,120.80657978655,31.368163050233,20370
金怡苑小区,120.802736,31.364511,18497
亭苑社区A区,120.771008,31.369136,20037
雍合湾花园,120.810021,31.367995,17235
仁恒PARK,120.730607,31.29806,35920
水墨江南二期,120.72943,31.294937,43301
水墨江南一期,120.726646,31.296158,43915
观棠,120.724054,31.297609,52168
中海世家,120.694144,31.303411,51780
水云居东区,120.690281,31.298252,44051
世茂铜雀台雅院,120.718807,31.29406,38417
名湖花园,120.72974547147,31.302985716537,39375
湖滨四季,120.70957780789,31.305588788143,102680
仁恒海和院,120.727934,31.299814,50088
苏州御园,120.722975,31.302792,56617
水云居西区,120.685219,31.2979,42902
融创苏州桃花源,120.695691,31.297469,46079
和乔丽晶,120.686981,31.300864,31120
中海御湖熙岸东区,120.690216,31.304634,44048
怡和花园,120.728748,31.307143,39072
晋合水巷邻里,120.687511,31.309511,54897
荣域花园,120.72982514286,31.290284664607,42666
城邦花园西区,120.68629832513,31.299414335349,31317
中海御湖熙岸西区,120.686791,31.30445,43151
九龙仓国宾一号,120.715681,31.299606,57997
仁恒双湖湾,120.729008,31.297986,53300
城邦花园东区,120.690327,31.300223,33414
高尔夫花园,120.694944,31.3002,35088
荷花苑,120.6744,31.292428,21715
和风景苑,120.671026,31.292891,17185
莱茵花园,120.672868,31.290557,30289
东城世纪广场,120.663423,31.294908,22690
独墅苑西区,120.669569,31.299496,26169
黄天荡新村,120.666944,31.297961,20050
群星苑五区,120.66744861551,31.290339514022,20189
葑谊新村南区,120.663556,31.293636,18676
金益二村,120.679354,31.295309,18838
栖霞栖庭,120.661397,31.285087,28214
恒润后街酒店式公寓,120.662578,31.297651,18586
东振小区,120.664348,31.298526,18723
朗琴湾花园,120.673312,31.295482,26450
城市经典,120.672145,31.292316,20108
群星苑二区,120.669459,31.286029,24177
金益四村,120.677539,31.29146,19628
新华苑,120.672437,31.291028,20098
群星苑四区,120.66756,31.287549,19882
金益三村,120.677575,31.292756,20680
通园新村,120.673513,31.297034,20842
群星苑三区,120.663418,31.284486,20675
怡葑庭,120.669489,31.295206,22533
韵动汇,120.667264,31.299675,23388
欧洲花园,120.67208772811,31.297243051458,20172
优山美地,120.669616,31.29004,28163
群星苑一区,120.671254,31.286929,20484
苏都花园,120.671051,31.316438,43599
悦湖,120.678313,31.287588,27256
鑫台商城,121.27640387529,37.546298886971,12409
致远大厦,120.642857,31.242817,8698
大筑城市广场,120.6407,31.261715,13205
上河原墅,120.645556,31.255117,21836
无影山中路78号,116.979787,36.689687,14563
公交苑,120.63943818198,31.258322661002,18173
吴中商城,120.636847,31.260493,16524
泰盛绿岛,120.646143,31.257394,28947
红庄新村五区,120.635629,31.239683,20740
紫荆苑,120.734155,31.338044,32562
翡翠国际,120.737088,31.334204,37294
白塘景苑一二期,120.747634,31.341444,34492
南澳花园,120.76242456556,31.255957697345,20870
白塘景苑三四期,120.743151,31.341232,33320
绿地华尔道,120.737694,31.335843,45916
中央景城,120.727647,31.334728,41475
鸿顺花苑,120.75640714945,31.24892559478,19996
淞泽家园（五区）,120.742366,31.249432,20917
淞涛社区淞泽家园一区,120.750346,31.250386,16551
淞泽家园（七区）,120.738036,31.247334,17215
淞泽家园九区,120.750344,31.248603,19200
淞泽家园（四区）,120.745884,31.254101,16917
淞泽家园（二区）,120.750622,31.255654,16563
淞泽社区淞泽家园三区,120.747468,31.253404,16079
淞泽家园（八区）,120.737902,31.250557,18156
淞泽家园（六区）,120.742389,31.253149,15348
东方文荟苑,120.765246,31.258234,16312
建屋紫宸庭,120.73035346803,31.271073098715,31556
月亮湾3号美颂花园,120.732817,31.261299,38616
建屋海德公园,120.7551700081,31.279453407542,31391
半月湾,120.727576,31.267108,41508
中新星湖公馆,120.730858,31.266947,29659
翰林缘,120.753733,31.284447,24848
黄岗东路3号,116.978179,36.693573,14262
田庄东路1号,116.981431,36.697797,14686
黄岗路4号,116.96448363493,36.689586791487,13318
黄岗路2号,116.96492478868,36.690579930436,14277
田庄东路4号,116.98175,36.695792,14938
无影山西路898,116.97569,36.692509,15705
天城集团宿舍,116.975393,36.689672,14097
黄岗东路6号,116.97775970716,36.693893640308,15018
西苑小区一区,116.972286,36.691981,15737
无影山路西街,116.98183670497,36.69839016887,14297
无影山路9号院,116.983268,36.698881,15446
清泉名苑,116.97790079181,36.698384638432,15045
龙箭山庄,116.9829221594,36.696157160263,15096
天福苑名人广场,116.97111514424,36.689860219384,12211
山东省建筑科学研究院,116.98105516068,36.690242488975,15170
西苑小区五区,116.97074203311,36.693802482837,14348
红庄新村四区,120.638009,31.239104,22917
海星生活广场,120.638593,31.260971,17442
重汽宿舍田庄东路8号院,116.965526,36.692079,16331
天誉生活广场,120.640798,31.2592,21619
第三大街,120.641562,31.260901,10526
山东省交通规划设计院宿舍,116.97704949305,36.692561143876,15368
西苑小区二区,116.975443,36.691137,13644
舜景花园,116.97980188543,36.695600159968,15602
西苑小区四区,116.97311425856,36.691867042043,14349
千鹤园小区,116.97832793144,36.697609058887,14246
热电新村,120.646243,31.258514,17932
西苑翠景园,116.973714,36.69345,15265
天福苑小区,116.96876421297,36.690467100973,13113
广枫苑,120.64192868253,31.255804036155,17879
威尼斯花园,120.649823,31.264166,25311
南城丽景,120.642591,31.252022,20389
吴商雅苑,120.641885,31.260386,16851
红庄新村三区,120.643205,31.241961,17244
新盛花园（吴中）,120.63793576766,31.258240967947,15856
远洋花园,120.638071,31.262473,15648
水岸清华,120.615031,31.230538,30557
华韵花园,120.645861,31.264349,19858
南湖之韵,120.638172,31.237142,15021
欧蓓莎中华美食城,120.625806,31.226458,10960
商城花园,120.63953004187,31.260324271321,15173
东兴花园,120.64010463122,31.255286398288,19509
公交一村,120.64397567412,31.260957770965,17405
城市新贵,120.638571,31.25193,17657
盛丰苑,120.635768,31.258212,15208
首开幸福公馆,120.628829,31.227635,14706
融创石湖桃花源,120.609102,31.261708,24631
碧波花园二区,120.63696658947,31.264475516415,16149
石湖嘉苑,120.63047466453,31.253038979014,25742
蠡墅花园天华苑西区,120.62460211945,31.252249802811,18380
嘉盛丽星公馆,120.623101,31.252569,16856
宝怡大厦,120.637179,31.254323,18956
迎春家园,120.649817,31.253396,16990
兰园公寓,120.64691680364,31.258095397119,16127
丽都国际,120.639966,31.259467,19435
吴逸花园,120.614788,31.25143,15291
蠡墅花园天枫苑,120.61821434155,31.252335588543,17431
旺吴金座,120.62197,31.262858,14896
桂苑二区,120.64094521907,31.250417616847,17506
吴中花园,120.636811,31.259742,19651
港龙财智国际,120.620346,31.248719,12791
石湖星城,120.6406944071,31.258090016281,22054
现代园墅,120.61612448843,31.225520345544,23636
碧水湾花园,120.64952962671,31.262182344366,23983
苏蠡花园,120.623911,31.251625,14390
水岸清华瀚宫,120.615139,31.232557,22168
德敏花园,120.63951236389,31.264398454027,18344
小石城1区玫瑰园,120.620798,31.219495,25068
城南印象生活广场,120.637242,31.250016,15173
海那城总部,116.942462,36.725796,9911
华锦苑,120.637565,31.251528,18134
凯悦大厦,120.635701,31.255929,12108
南石湖花园,120.62653918887,31.229509453676,12979
美乐城,120.627671,31.226502,14326
蠡墅花园天华苑东区,120.62780361993,31.251644975469,17323
塘湾新村,120.634959,31.262132,20976
长蠡花园,120.626686,31.249934,18846
东吴南路155号,120.63500516167,31.256111307355,18208
白云新村,120.64727269086,31.262456731246,19933
碧波花园三区,120.64368975479,31.262678614562,20114
建安别院,120.649286,31.260762,24533
太湖临湖湾,120.458236,31.133217,16941
帕堤欧东润花园,120.473851,31.138384,14931
托斯卡纳,120.468176,31.139632,13731
太湖缘,120.464655,31.13193,9197
中梁天颂,120.503277,31.168556,14326
聆湖别苑,120.507759,31.172851,8992
托斯卡那东泰花园,120.475479,31.138595,12542
庄子,120.460096,31.136153,13602
普罗旺斯,120.47162,31.142273,19390
绿地博墅,120.467587,31.139538,14363
碧波二村,120.6426010634,31.264299047091,16232
仁泰花园,120.63471946614,31.250642169751,17078
朗诗东吴绿郡,120.644307,31.254562,29629
碧波花园,120.63809861229,31.263173638414,16267
华村苑,120.61615163214,31.250913238979,15749
蠡墅花园天怡苑,120.617978,31.244073,16253
世茂石湖湾,120.610735,31.251241,25048
港澳桂苑,120.638572,31.250543,14490
小石城5区紫竹园,120.62328788754,31.222001807568,19702
小石城8区梧桐园,120.623396,31.224357,19667
蠡墅花园天韵苑,120.61413890194,31.255029624241,17062
美韵公寓,120.636752,31.261777,17313
蓝调都汇,120.642288,31.258094,13685
玫瑰久久,120.63392278441,31.238164251872,19506
小石城2区玉兰园,120.62666013841,31.222544955503,21219
新城香溢澜桥,120.6419,31.244142,21620
中天和景苑,120.62409307819,31.254367272743,21252
小石城7区桂花园,120.626895,31.224862,20074
小石城6区香樟园,120.62049104421,31.222489527608,20257
蜜蜂城,120.618207,31.24838,8481
怡景天地,121.258992,37.562366,7284
永诚国际广场,120.62112507224,31.252913210102,11199
清水湾花园,120.62963857561,31.246943612328,18873
科技村,121.249765,37.55401,24347
越湖名邸,120.630102,31.238184,20091
新城金郡南区二期,120.63017735754,31.221764980764,20755
